"","flat_type","town","ID","Town/Name","Project Name","End of MOP","Launch Date","Year Completed","Total Units","lon","lat","Type","num_of_units","price1"
"2","2-Room","ANG MO KIO","M1","Ang Mo Kio","Ang Mo Kio Court",2025,"24 May 2016",2020,156,103.840314,1.3682685,"MOP",156,229690.617109091
"3","2-Room","ANG MO KIO","M2","Ang Mo Kio","Yio Chu Kang Beacon",2028,"12 Nov 2019",2023,132,103.8418911,1.3833851,"MOP",132,229690.617109091
"8","2-Room","BEDOK","M3","Bedok","Bedok South Horizon",2026,"22 Nov 2016",2021,209,103.947097,1.3181586,"MOP",209,236917.435061905
"9","2-Room","BEDOK","M4","Bedok","Bedok North Vale",2025,"22 Nov 2016",2020,121,103.925242,1.3303879,"MOP",121,236917.435061905
"10","2-Room","BEDOK","M5","Bedok","Bedok Beacon",2026,"22 Nov 2016",2021,200,103.9277272,1.3240545,"MOP",200,236917.435061905
"11","2-Room","BEDOK","M6","Bedok","Ping Yi Greens",2020,"28 Mar 2012",2015,98,103.9232223,1.3275598,"MOP",98,236917.435061905
"13","2-Room","BIDADARI","M7","Bidadari","Alkaff Oasis",2025,"24 Feb 2016",2020,218,103.8727282,1.3346028,"MOP",218,354293.3512
"15","2-Room","BIDADARI","M8","Bidadari","Woodleigh Glen",2026,"22 Nov 2016",2021,130,103.8716317,1.3407875,"MOP",130,354293.3512
"16","2-Room","BIDADARI","M9","Bidadari","Woodleigh Hillside",2027,"18 May 2017",2022,158,103.875035,1.3425497,"MOP",158,354293.3512
"19","2-Room","BIDADARI","M10","Bidadari","Alkaff CourtView",2025,"17 Nov 2015",2020,192,103.8718446,1.3365945,"MOP",192,354293.3512
"20","2-Room","BISHAN","M11","Bishan","Bishan Towers",2030,"12 Aug 2020",2025,120,103.8435261,1.3573749,"MOP",120,370821.2247
"21","2-Room","BUKIT BATOK","M12","Bukit Batok","West Edge @ Bukit Batok",2024,"11 Feb 2015",2019,628,103.7399914,1.3590445,"MOP",628,377078.9837
"22","2-Room","BUKIT BATOK","M13","Bukit Batok","Sky Vista",2027,"01 Aug 2017",2022,123,103.742288,1.3620166,"MOP",123,377078.9837
"24","2-Room","BUKIT BATOK","M14","Bukit Batok","SkyPeak @ Bukit Batok",2022,"21 Mar 2013",2017,100,103.7546414,1.3447804,"MOP",100,377078.9837
"26","2-Room","BUKIT BATOK","M15","Bukit Batok","West Terra & Bukit Batok",2023,"24 Sep 2014",2018,462,103.7420189,1.3522808,"MOP",462,377078.9837
"27","2-Room","BUKIT BATOK","M16","Bukit Batok","West Quarry @ Bukit Batok",2024,"17 Nov 2015",2019,337,103.7393258,1.3542492,"MOP",337,377078.9837
"28","2-Room","BUKIT BATOK","M17","Bukit Batok","West Scape",2026,"01 Aug 2017",2021,504,103.742288,1.3620166,"MOP",504,377078.9837
"30","2-Room","BUKIT BATOK","M18","Bukit Batok","West Valley @ Bukit Batok",2023,"22 May 2014",2018,290,103.7411051,1.3520013,"MOP",290,377078.9837
"32","2-Room","BUKIT BATOK","M19","Bukit Batok","West Crest @ Bukit Batok",2022,"22 May 2014",2017,100,103.739209,1.3509816,"MOP",100,377078.9837
"33","2-Room","BUKIT BATOK","M20","Bukit Batok","West Ridges @ Bukit Batok",2023,"26 Nov 2013",2018,202,103.7385589,1.3558015,"MOP",202,377078.9837
"34","2-Room","BUKIT BATOK","M21","Bukit Batok","West Plains @ Bukit Batok",2025,"24 Feb 2016",2020,674,103.7422631,1.3580589,"MOP",674,377078.9837
"39","2-Room","BUKIT PANJANG","M22","Bukit Panjang","Senja Valley",2026,"24 May 2016",2021,400,103.7634149,1.3885828,"MOP",400,257001.349054167
"40","2-Room","BUKIT PANJANG","M23","Bukit Panjang","Senja Heights",2026,"24 May 2016",2021,253,103.761581,1.381349,"MOP",253,257001.349054167
"43","2-Room","CHOA CHU KANG","M24","Choa Chu Kang","Teck Whye View",2027,"06 Feb 2018",2022,252,103.7585205,1.3799105,"MOP",252,253508.190532143
"44","2-Room","CHOA CHU KANG","M25","Choa Chu Kang","Keat Hong Axis",2021,"31 Jul 2012",2016,98,103.7448487,1.375306,"MOP",98,253508.190532143
"45","2-Room","CHOA CHU KANG","M26","Choa Chu Kang","Keat Hong Verge",2028,"12 Aug 2020",2023,163,103.7456835,1.3850933,"MOP",163,253508.190532143
"50","2-Room","CHOA CHU KANG","M27","Choa Chu Kang","Teck Whye Vista",2025,"17 Nov 2015",2020,126,103.755083,1.377951,"MOP",126,253508.190532143
"58","2-Room","GEYLANG","M28","Geylang","Pine Vista",2025,"18 May 2017",2020,136,103.8857594,1.3105538,"MOP",136,213708.803074667
"61","2-Room","GEYLANG","M29","Geylang","Ubi Grove",2027,"06 Feb 2018",2022,120,103.8992134,1.3267949,"MOP",120,213708.803074667
"64","2-Room","GEYLANG","M30","Geylang","Dakota Breeze",2026,"18 May 2017",2021,166,103.8890051,1.3093954,"MOP",166,213708.803074667
"65","2-Room","GEYLANG","M31","Geylang","Eunos Court",2027,"14 Nov 2017",2022,107,103.901417,1.3205992,"MOP",107,213708.803074667
"68","2-Room","HOUGANG","M32","Hougang","Buangkok Tropica",2023,"11 Feb 2015",2018,285,103.8820399,1.385146,"MOP",285,257457.722654839
"72","2-Room","HOUGANG","M33","Hougang","Hougang Meadow",2022,"26 Nov 2013",2017,150,103.8973755,1.369313,"MOP",150,257457.722654839
"73","2-Room","HOUGANG","M34","Hougang","Buangkok Square",2023,"24 Sep 2014",2018,317,103.8838604,1.3853958,"MOP",317,257457.722654839
"75","2-Room","HOUGANG","M35","Hougang","Buangkok Woods",2024,"17 Aug 2016",2019,364,103.8832865,1.3851951,"MOP",364,257457.722654839
"77","2-Room","HOUGANG","M36","Hougang","Buangkok Parkvista",2023,"11 Feb 2015",2018,198,103.8803685,1.3840108,"MOP",198,257457.722654839
"80","2-Room","JURONG WEST","M37","Jurong West","Jurong West Jewel",2027,"12 Feb 2019",2022,187,103.6936205,1.3354284,"MOP",187,245892.123048077
"81","2-Room","JURONG WEST","M38","Jurong West","Boon Lay Glade",2027,"12 Feb 2019",2022,313,103.6936205,1.3354284,"MOP",313,245892.123048077
"82","2-Room","JURONG WEST","M39","Jurong West","Spring Haven @ Jurong",2022,"30 May 2013",2017,90,103.7197797,1.3532112,"MOP",90,245892.123048077
"84","2-Room","JURONG WEST","M40","Jurong West","Yung Ho Spring II",2023,"24 Sep 2014",2018,171,103.722392,1.3267143,"MOP",171,245892.123048077
"85","2-Room","JURONG WEST","M41","Jurong West","Yung Ho Spring I",2023,"24 Sep 2014",2018,240,103.7233696,1.3268606,"MOP",240,245892.123048077
"88","2-Room","KALLANG/WHAMPOA","M42","Kallang/Whampoa","Kempas Residences",2029,"22 May 2019",2024,150,103.8593269,1.3172849,"MOP",150,232398.397295238
"96","2-Room","PASIR RIS","M43","Pasir Ris","Costa Grove",2030,"12 Aug 2020",2025,212,103.9472922,1.3773575,"MOP",212,265542.26995
"100","2-Room","PUNGGOL","M44","Punggol","Punggol Vue",2022,"22 Jan 2014",2017,304,103.8989687,1.4125294,"MOP",304,265107.128814286
"101","2-Room","PUNGGOL","M45","Punggol","Punggol Point Crown",2028,"11 Sep 2019",2023,716,103.9110284,1.4193302,"MOP",716,265107.128814286
"103","2-Room","PUNGGOL","M46","Punggol","Northshore Cove",2026,"14 Feb 2017",2021,310,103.9062482,1.4199116,"MOP",310,265107.128814286
"104","2-Room","PUNGGOL","M47","Punggol","Waterfront II @ Northshore",2025,"17 Nov 2015",2020,212,103.9017599,1.4184607,"MOP",212,265107.128814286
"109","2-Room","PUNGGOL","M48","Punggol","Northshore StraitsView",2025,"17 Nov 2015",2020,469,103.9022587,1.4160392,"MOP",469,265107.128814286
"111","2-Room","PUNGGOL","M49","Punggol","Waterway Sunray",2022,"19 Jul 2014",2017,104,103.9188218,1.4006575,"MOP",104,265107.128814286
"113","2-Room","PUNGGOL","M50","Punggol","Northshore Trio",2026,"22 Nov 2016",2021,198,103.9022587,1.4160392,"MOP",198,265107.128814286
"116","2-Room","PUNGGOL","M51","Punggol","Punggol Point Woods",2028,"28 Aug 2018",2023,387,103.9107426,1.4171146,"MOP",387,265107.128814286
"117","2-Room","PUNGGOL","M52","Punggol","Waterway Sunrise II",2026,"14 Feb 2017",2021,403,103.9199535,1.399918,"MOP",403,265107.128814286
"119","2-Room","PUNGGOL","M53","Punggol","Punggol Point Cove",2028,"28 Aug 2018",2023,504,103.9110284,1.4193302,"MOP",504,265107.128814286
"121","2-Room","PUNGGOL","M54","Punggol","Matilda Edge",2022,"26 Sep 2013",2017,192,103.8947345,1.4019567,"MOP",192,265107.128814286
"122","2-Room","PUNGGOL","M55","Punggol","Punggol Point Cove",2029,"11 Sep 2019",2024,544,103.9110284,1.4193302,"MOP",544,265107.128814286
"123","2-Room","PUNGGOL","M56","Punggol","Northshore Residences II",2025,"27 May 2015",2020,338,103.9016318,1.4162076,"MOP",338,265107.128814286
"124","2-Room","PUNGGOL","M57","Punggol","Punggol Opal",2020,"31 Jul 2012",2015,128,103.8954588,1.4055689,"MOP",128,265107.128814286
"125","2-Room","PUNGGOL","M58","Punggol","Waterway Sunrise I",2026,"22 Nov 2016",2021,671,103.9199535,1.399918,"MOP",671,265107.128814286
"128","2-Room","PUNGGOL","M59","Punggol","Waterfront I @ Northshore",2025,"17 Nov 2015",2020,150,103.9022587,1.4160392,"MOP",150,265107.128814286
"129","2-Room","PUNGGOL","M60","Punggol","Northshore Residences I",2025,"27 May 2015",2020,208,103.9016318,1.4162076,"MOP",208,265107.128814286
"130","2-Room","PUNGGOL","M61","Punggol","Matilda Court",2022,"19 Jul 2014",2017,320,103.8909577,1.4023353,"MOP",320,265107.128814286
"133","2-Room","SEMBAWANG","M62","Sembawang","EastLace @ Canberra",2022,"26 Mar 2014",2017,140,103.8291887,1.4465795,"MOP",140,251805.807412281
"134","2-Room","SEMBAWANG","M63","Sembawang","EastCreek @ Canberra",2024,"24 May 2016",2019,610,103.8304504,1.451342,"MOP",610,251805.807412281
"135","2-Room","SEMBAWANG","M64","Sembawang","EastLink II @ Canberra",2024,"27 May 2015",2019,174,103.8302401,1.4452047,"MOP",174,251805.807412281
"138","2-Room","SEMBAWANG","M65","Sembawang","Sun Natura",2023,"19 Jul 2014",2018,330,103.813649,1.4468175,"MOP",330,251805.807412281
"140","2-Room","SEMBAWANG","M66","Sembawang","Sun Breeze",2023,"25 Nov 2014",2018,278,103.8171695,1.4439364,"MOP",278,251805.807412281
"141","2-Room","SEMBAWANG","M67","Sembawang","Canberra Vista",2029,"11 Feb 2020",2024,692,103.8293357,1.4399446,"MOP",692,251805.807412281
"142","2-Room","SEMBAWANG","M68","Sembawang","EastLink I @ Canberra",2024,"27 May 2015",2019,229,103.8302401,1.4452047,"MOP",229,251805.807412281
"143","2-Room","SEMBAWANG","M69","Sembawang","EastBrook @ Canberra",2022,"30 May 2013",2017,140,103.8329686,1.4499034,"MOP",140,251805.807412281
"144","2-Room","SEMBAWANG","M70","Sembawang","EastCrown @ Canberra",2022,"26 Mar 2014",2017,312,103.8318826,1.444703,"MOP",312,251805.807412281
"146","2-Room","SENGKANG","M71","Sengkang","Fernvale Glades",2026,"14 Nov 2017",2021,533,103.8707038,1.3949256,"MOP",533,259973.861891176
"147","2-Room","SENGKANG","M72","Sengkang","Fernvale Dew",2027,"22 May 2018",2022,526,103.8701991,1.3898356,"MOP",526,259973.861891176
"148","2-Room","SENGKANG","M73","Sengkang","Anchorvale Village",2027,"14 Nov 2017",2022,104,103.888033,1.3965247,"MOP",104,259973.861891176
"149","2-Room","SENGKANG","M74","Sengkang","Rivervale Shores",2027,"01 Aug 2017",2022,1074,103.9098991,1.38712,"MOP",1074,259973.861891176
"150","2-Room","SENGKANG","M75","Sengkang","Fernvale Lea",2020,"12 Jan 2012",2015,100,103.8780162,1.3959613,"MOP",100,259973.861891176
"155","2-Room","SENGKANG","M76","Sengkang","Fernvale Riverwalk",2022,"30 Jul 2013",2017,121,103.8803066,1.3914157,"MOP",121,259973.861891176
"156","2-Room","SENGKANG","M77","Sengkang","Fernvale Vines",2028,"12 Feb 2019",2023,437,103.8766905,1.3983676,"MOP",437,259973.861891176
"157","2-Room","SENGKANG","M78","Sengkang","Anchorvale Plains",2025,"24 Feb 2016",2020,448,103.8851063,1.3929584,"MOP",448,259973.861891176
"159","2-Room","SENGKANG","M79","Sengkang","Fernvale Woods",2024,"17 Nov 2015",2019,607,103.8709559,1.3913936,"MOP",607,259973.861891176
"160","2-Room","SENGKANG","M80","Sengkang","Anchorvale Fields",2023,"25 Nov 2014",2018,224,103.9018617,1.3855816,"MOP",224,259973.861891176
"169","2-Room","TAMPINES","M81","Tampines","Tampines GreenSpring",2028,"12 Nov 2019",2023,156,103.9405828,1.3546125,"MOP",156,265602.466189189
"173","2-Room","TAMPINES","M82","Tampines","Tampines GreenCourt",2027,"14 Nov 2017",2022,192,103.9418589,1.363855,"MOP",192,265602.466189189
"174","2-Room","TAMPINES","M83","Tampines","Tampines GreenGem",2028,"13 Nov 2018",2023,160,103.9356845,1.3435212,"MOP",160,265602.466189189
"184","2-Room","TENGAH","M84","Tengah","Garden Vines @ Tengah",2028,"12 Nov 2019",2023,418,103.7317692,1.3611945,"MOP",418,261843.4087
"185","2-Room","TENGAH","M85","Tengah","Plantation Grange",2027,"12 Nov 2019",2022,346,103.7308252,1.3554331,"MOP",346,261843.4087
"186","2-Room","TENGAH","M86","Tengah","Plantation Village",2028,"12 Nov 2019",2023,426,103.7340544,1.3585237,"MOP",426,261843.4087
"187","2-Room","TENGAH","M87","Tengah","Plantation Acres",2027,"22 May 2019",2022,543,103.7308145,1.3555189,"MOP",543,261843.4087
"188","2-Room","TENGAH","M88","Tengah","Parc Residences @ Tengah",2030,"12 Aug 2020",2025,480,103.7308145,1.3555189,"MOP",480,261843.4087
"189","2-Room","TENGAH","M89","Tengah","Plantation Grove",2028,"13 Nov 2018",2023,522,103.7308145,1.3555189,"MOP",522,261843.4087
"190","2-Room","TENGAH","M90","Tengah","Garden Vale @ Tengah",2028,"22 May 2019",2023,464,103.7333249,1.3598323,"MOP",464,261843.4087
"191","2-Room","TOA PAYOH","M91","Toa Payoh","Toa Payoh Ridge",2030,"11 Feb 2020",2025,165,103.8433925,1.3390926,"MOP",165,229102.504948101
"194","2-Room","TOA PAYOH","M92","Toa Payoh","Kim Keat Ripples",2029,"11 Feb 2020",2024,150,103.8585033,1.3335284,"MOP",150,229102.504948101
"201","2-Room","WOODLANDS","M93","Woodlands","Marsiling Greenview",2023,"22 May 2014",2018,289,103.7765789,1.4351462,"MOP",289,266880.828913462
"204","2-Room","WOODLANDS","M94","Woodlands","Champions Bliss",2029,"12 Aug 2020",2024,150,103.7858113,1.4410489,"MOP",150,266880.828913462
"205","2-Room","WOODLANDS","M95","Woodlands","Woodlands Glen",2022,"22 Jan 2014",2017,300,103.7987432,1.4310337,"MOP",300,266880.828913462
"206","2-Room","WOODLANDS","M96","Woodlands","Admiralty Grove",2022,"26 Nov 2013",2017,252,103.8037955,1.4379932,"MOP",252,266880.828913462
"207","2-Room","WOODLANDS","M97","Woodlands","UrbanVille @ Woodlands",2031,"12 Aug 2020",2026,696,103.7889597,1.4381922,"MOP",696,266880.828913462
"210","2-Room","WOODLANDS","M98","Woodlands","Champions Green",2028,"22 May 2019",2023,342,103.790016,1.4272453,"MOP",342,266880.828913462
"211","2-Room","WOODLANDS","M99","Woodlands","Woodlands Glade",2026,"06 Feb 2018",2021,285,103.8023954,1.4495841,"MOP",285,266880.828913462
"212","2-Room","WOODLANDS","M100","Woodlands","Marsiling Grove",2027,"18 May 2017",2022,493,103.7745925,1.4367209,"MOP",493,266880.828913462
"215","2-Room","YISHUN","M101","Yishun","Blossom Spring @ Yishun",2023,"25 Nov 2014",2018,260,103.8502523,1.4272274,"MOP",260,271825.564021739
"217","2-Room","YISHUN","M102","Yishun","Meadow Spring @ Yishun",2023,"25 Nov 2014",2018,182,103.8524679,1.4249349,"MOP",182,271825.564021739
"218","2-Room","YISHUN","M103","Yishun","Vine Grove @ Yishun",2021,"30 Jul 2013",2016,180,103.8413116,1.4188334,"MOP",180,271825.564021739
"219","2-Room","YISHUN","M104","Yishun","Melody Spring @ Yishun 1",2026,"28 Aug 2018",2021,282,103.8540588,1.4266597,"MOP",282,271825.564021739
"221","2-Room","YISHUN","M105","Yishun","Park Grove @ Yishun",2022,"19 Jul 2014",2017,120,103.8434644,1.4215242,"MOP",120,271825.564021739
"222","2-Room","YISHUN","M106","Yishun","Forest Spring @ Yishun",2026,"18 May 2017",2021,320,103.8524002,1.4258525,"MOP",320,271825.564021739
"223","2-Room","YISHUN","M107","Yishun","Valley Spring @ Yishun",2025,"17 Aug 2016",2020,416,103.8513727,1.4288169,"MOP",416,271825.564021739
"225","2-Room","YISHUN","M108","Yishun","Saraca Breeze @ Yishun",2022,"26 Sep 2013",2017,84,103.8443098,1.4158811,"MOP",84,271825.564021739
"226","2-Room","YISHUN","M109","Yishun","Fern Grove @ Yishun",2022,"26 Mar 2014",2017,288,103.8420054,1.4205609,"MOP",288,271825.564021739
"228","2-Room","YISHUN","M110","Yishun","Casa Spring @ Yishun",2026,"22 May 2018",2021,429,103.8501402,1.4257168,"MOP",429,271825.564021739
"229","2-Room","YISHUN","M111","Yishun","Yishun Glen",2027,"28 Aug 2018",2022,727,103.846063,1.4301457,"MOP",727,271825.564021739
"231","3-Room","ANG MO KIO","M112","Ang Mo Kio","Teck Ghee Parkview",2022,"27 Sep 2012",2017,130,103.8572746,1.3685704,"MOP",130,303366.207604391
"234","3-Room","ANG MO KIO","M113","Ang Mo Kio","Cheng San Court",2023,"27 Sep 2012",2018,178,103.8536139,1.3712675,"MOP",178,303366.207604391
"235","3-Room","ANG MO KIO","M114","Ang Mo Kio","Yio Chu Kang Beacon",2028,"12 Nov 2019",2023,87,103.8418911,1.3833851,"MOP",87,303366.207604391
"236","3-Room","BEDOK","M115","Bedok","Fengshan GreenVille",2023,"21 Nov 2012",2018,182,103.9413278,1.3316628,"MOP",182,301540.892204262
"239","3-Room","BEDOK","M116","Bedok","Bedok North Vale",2025,"22 Nov 2016",2020,94,103.925242,1.3303879,"MOP",94,301540.892204262
"240","3-Room","BEDOK","M117","Bedok","Bedok North Woods",2025,"24 May 2016",2020,110,103.9328077,1.3294743,"MOP",110,301540.892204262
"241","3-Room","BEDOK","M118","Bedok","Ping Yi Greens",2020,"28 Mar 2012",2015,84,103.9232223,1.3275598,"MOP",84,301540.892204262
"242","3-Room","BIDADARI","M119","Bidadari","Alkaff Oasis",2025,"24 Feb 2016",2020,340,103.8727282,1.3346028,"MOP",340,452845.25065
"243","3-Room","BIDADARI","M120","Bidadari","Woodleigh Village",2026,"22 Nov 2016",2021,171,103.8707373,1.3391274,"MOP",171,452845.25065
"245","3-Room","BIDADARI","M121","Bidadari","Woodleigh Glen",2026,"22 Nov 2016",2021,130,103.8716317,1.3407875,"MOP",130,452845.25065
"246","3-Room","BIDADARI","M122","Bidadari","Alkaff CourtView",2025,"17 Nov 2015",2020,369,103.8718446,1.3365945,"MOP",369,452845.25065
"247","3-Room","BIDADARI","M123","Bidadari","Woodleigh Hillside",2027,"18 May 2017",2022,143,103.875035,1.3425497,"MOP",143,452845.25065
"248","3-Room","BIDADARI","M124","Bidadari","Alkaff LakeView",2024,"17 Nov 2015",2019,198,103.8722204,1.3363156,"MOP",198,452845.25065
"249","3-Room","BISHAN","M125","Bishan","Bishan Towers",2030,"12 Aug 2020",2025,80,103.8435261,1.3573749,"MOP",80,326211.569835417
"250","3-Room","BUKIT BATOK","M126","Bukit Batok","Sky Vista",2027,"01 Aug 2017",2022,134,103.742288,1.3620166,"MOP",134,291661.291454773
"251","3-Room","BUKIT BATOK","M127","Bukit Batok","Bukit Gombak Vista",2022,"22 Jan 2014",2017,130,103.7502324,1.3594135,"MOP",130,291661.291454773
"253","3-Room","BUKIT BATOK","M128","Bukit Batok","Skyline I @ Bukit Batok",2021,"28 Mar 2012",2016,78,103.7454697,1.344939,"MOP",78,291661.291454773
"254","3-Room","BUKIT BATOK","M129","Bukit Batok","West Quarry @ Bukit Batok",2024,"17 Nov 2015",2019,79,103.7393258,1.3542492,"MOP",79,291661.291454773
"255","3-Room","BUKIT BATOK","M130","Bukit Batok","Skyline II @ Bukit Batok",2022,"28 Mar 2012",2017,136,103.7480459,1.3437583,"MOP",136,291661.291454773
"256","3-Room","BUKIT BATOK","M131","Bukit Batok","West Valley @ Bukit Batok",2023,"22 May 2014",2018,216,103.7411051,1.3520013,"MOP",216,291661.291454773
"258","3-Room","BUKIT BATOK","M132","Bukit Batok","West Edge @ Bukit Batok",2024,"11 Feb 2015",2019,108,103.7399914,1.3590445,"MOP",108,291661.291454773
"259","3-Room","BUKIT BATOK","M133","Bukit Batok","West Ridges @ Bukit Batok",2023,"26 Nov 2013",2018,235,103.7385589,1.3558015,"MOP",235,291661.291454773
"260","3-Room","BUKIT BATOK","M134","Bukit Batok","SkyPeak @ Bukit Batok",2022,"21 Mar 2013",2017,110,103.7546414,1.3447804,"MOP",110,291661.291454773
"261","3-Room","BUKIT BATOK","M135","Bukit Batok","West Scape",2026,"01 Aug 2017",2021,118,103.742288,1.3620166,"MOP",118,291661.291454773
"262","3-Room","BUKIT BATOK","M136","Bukit Batok","West Plains @ Bukit Batok",2025,"24 Feb 2016",2020,187,103.7422631,1.3580589,"MOP",187,291661.291454773
"263","3-Room","BUKIT BATOK","M137","Bukit Batok","West Terra & Bukit Batok",2023,"24 Sep 2014",2018,261,103.7420189,1.3522808,"MOP",261,291661.291454773
"264","3-Room","BUKIT MERAH","M138","Bukit Merah","Depot Heights",2021,"31 Jul 2012",2016,128,103.8092881,1.2810873,"MOP",128,353088.347975673
"265","3-Room","BUKIT MERAH","M139","Bukit Merah","Telok Blangah ParcView",2022,"30 Jul 2013",2017,386,103.8075668,1.2762338,"MOP",386,353088.347975673
"266","3-Room","BUKIT MERAH","M140","Bukit Merah","Telok Blangah Ridgeview",2021,"31 Jul 2012",2016,96,103.8108498,1.2762179,"MOP",96,353088.347975673
"267","3-Room","BUKIT PANJANG","M141","Bukit Panjang","Senja Valley",2026,"24 May 2016",2021,105,103.7634149,1.3885828,"MOP",105,325689.222913019
"268","3-Room","BUKIT PANJANG","M142","Bukit Panjang","Fajar Hills",2020,"28 Mar 2012",2015,146,103.7708612,1.3810669,"MOP",146,325689.222913019
"270","3-Room","BUKIT PANJANG","M143","Bukit Panjang","Senja Heights",2026,"24 May 2016",2021,85,103.761581,1.381349,"MOP",85,325689.222913019
"273","3-Room","CHOA CHU KANG","M144","Choa Chu Kang","Keat Hong Verge",2028,"12 Aug 2020",2023,118,103.7456835,1.3850933,"MOP",118,320925.727216585
"274","3-Room","CHOA CHU KANG","M145","Choa Chu Kang","Keat Hong Crest",2022,"30 May 2013",2017,146,103.7433614,1.3744888,"MOP",146,320925.727216585
"275","3-Room","CHOA CHU KANG","M146","Choa Chu Kang","Keat Hong Colours",2021,"29 Jan 2013",2016,136,103.7460476,1.3734679,"MOP",136,320925.727216585
"276","3-Room","CHOA CHU KANG","M147","Choa Chu Kang","Teck Whye View",2027,"06 Feb 2018",2022,84,103.7585205,1.3799105,"MOP",84,320925.727216585
"277","3-Room","CHOA CHU KANG","M148","Choa Chu Kang","Keat Kong Mirage",2021,"21 Nov 2012",2016,114,103.749297,1.3766345,"MOP",114,320925.727216585
"278","3-Room","CHOA CHU KANG","M149","Choa Chu Kang","Keat Hong Pride",2021,"30 May 2012",2016,80,103.7423207,1.3729806,"MOP",80,320925.727216585
"279","3-Room","CHOA CHU KANG","M150","Choa Chu Kang","Keat Hong Axis",2021,"31 Jul 2012",2016,140,103.7448487,1.375306,"MOP",140,320925.727216585
"280","3-Room","CHOA CHU KANG","M151","Choa Chu Kang","Sunshine Gardens",2020,"12 Jan 2012",2015,118,103.7402665,1.3763898,"MOP",118,320925.727216585
"282","3-Room","CLEMENTI","M152","Clementi","Clementi Gateway",2021,"31 Jul 2012",2016,134,103.7624548,1.3224914,"MOP",134,316474.113288173
"283","3-Room","CLEMENTI","M153","Clementi","Clementi Peaks",2027,"14 Feb 2017",2022,70,103.7680058,1.3107835,"MOP",70,316474.113288173
"284","3-Room","CLEMENTI","M154","Clementi","Clementi Ridges",2021,"28 Mar 2012",2016,156,103.7645932,1.3195866,"MOP",156,316474.113288173
"285","3-Room","CLEMENTI","M155","Clementi","Clementi NorthArc",2027,"14 Feb 2017",2022,148,103.7621079,1.323519,"MOP",148,316474.113288173
"287","3-Room","GEYLANG","M156","Geylang","Greentops @ Sims Place",2020,"31 Jul 2012",2015,142,103.8796619,1.3165145,"MOP",142,285933.717121313
"288","3-Room","GEYLANG","M157","Geylang","MacPherson Spring",2024,"11 Feb 2015",2019,204,103.8894844,1.3241946,"MOP",204,285933.717121313
"289","3-Room","GEYLANG","M158","Geylang","Pine Vista",2025,"18 May 2017",2020,183,103.8857594,1.3105538,"MOP",183,285933.717121313
"290","3-Room","GEYLANG","M159","Geylang","Dakota One",2030,"12 Aug 2020",2025,87,103.8871123,1.3201362,"MOP",87,285933.717121313
"291","3-Room","GEYLANG","M160","Geylang","Dakota Breeze",2026,"18 May 2017",2021,117,103.8890051,1.3093954,"MOP",117,285933.717121313
"292","3-Room","GEYLANG","M161","Geylang","Eunos Court",2027,"14 Nov 2017",2022,97,103.901417,1.3205992,"MOP",97,285933.717121313
"293","3-Room","GEYLANG","M162","Geylang","Ubi Grove",2027,"06 Feb 2018",2022,80,103.8992134,1.3267949,"MOP",80,285933.717121313
"294","3-Room","GEYLANG","M163","Geylang","MacPherson Residency",2020,"28 Mar 2012",2015,211,103.8886982,1.3294,"MOP",211,285933.717121313
"295","3-Room","HOUGANG","M164","Hougang","Hougang ParkEdge",2021,"29 Jan 2013",2016,136,103.9006596,1.3763946,"MOP",136,302118.276238831
"296","3-Room","HOUGANG","M165","Hougang","Buangkok Square",2023,"24 Sep 2014",2018,116,103.8838604,1.3853958,"MOP",116,302118.276238831
"297","3-Room","HOUGANG","M166","Hougang","Capeview",2020,"24 Nov 2011",2015,108,103.9040751,1.3792987,"MOP",108,302118.276238831
"299","3-Room","HOUGANG","M167","Hougang","Buangkok Tropica",2023,"11 Feb 2015",2018,90,103.8820399,1.385146,"MOP",90,302118.276238831
"302","3-Room","HOUGANG","M168","Hougang","Hougang Meadow",2022,"26 Nov 2013",2017,188,103.8973755,1.369313,"MOP",188,302118.276238831
"304","3-Room","HOUGANG","M169","Hougang","Buangkok Woods",2024,"17 Aug 2016",2019,97,103.8832865,1.3851951,"MOP",97,302118.276238831
"305","3-Room","HOUGANG","M170","Hougang","Hougang Crimson",2021,"30 May 2013",2016,104,103.8818666,1.3752041,"MOP",104,302118.276238831
"306","3-Room","HOUGANG","M171","Hougang","Buangkok Parkvista",2023,"11 Feb 2015",2018,95,103.8803685,1.3840108,"MOP",95,302118.276238831
"307","3-Room","JURONG EAST","M172","Jurong East","Teban View",2020,"22 Sep 2011",2015,185,103.7374775,1.3219125,"MOP",185,299093.426949917
"308","3-Room","JURONG WEST","M173","Jurong West","Yung Ho Spring II",2023,"24 Sep 2014",2018,95,103.722392,1.3267143,"MOP",95,289281.412314246
"309","3-Room","JURONG WEST","M174","Jurong West","Yung Ho Spring I",2023,"24 Sep 2014",2018,135,103.7233696,1.3268606,"MOP",135,289281.412314246
"310","3-Room","JURONG WEST","M175","Jurong West","Boon Lay View",2022,"26 Nov 2013",2017,140,103.7109866,1.3504655,"MOP",140,289281.412314246
"311","3-Room","JURONG WEST","M176","Jurong West","Boon Lay Glade",2027,"12 Feb 2019",2022,64,103.6936205,1.3354284,"MOP",64,289281.412314246
"313","3-Room","JURONG WEST","M177","Jurong West","Spring Haven @ Jurong",2022,"30 May 2013",2017,150,103.7197797,1.3532112,"MOP",150,289281.412314246
"315","3-Room","JURONG WEST","M178","Jurong West","Jurong West Jewel",2027,"12 Feb 2019",2022,102,103.6936205,1.3354284,"MOP",102,289281.412314246
"316","3-Room","KALLANG/WHAMPOA","M179","Kallang/Whampoa","McNair Towers",2021,"30 May 2012",2016,115,103.8599708,1.3211714,"MOP",115,324266.161574002
"317","3-Room","KALLANG/WHAMPOA","M180","Kallang/Whampoa","St. George’s Towers",2024,"24 Sep 2014",2019,124,103.862117,1.3222715,"MOP",124,324266.161574002
"318","3-Room","KALLANG/WHAMPOA","M181","Kallang/Whampoa","Tenteram Peak",2021,"27 Sep 2012",2016,319,103.8607766,1.3282925,"MOP",319,324266.161574002
"319","3-Room","KALLANG/WHAMPOA","M182","Kallang/Whampoa","Kempas Residences",2029,"22 May 2019",2024,115,103.8593269,1.3172849,"MOP",115,324266.161574002
"320","3-Room","KALLANG/WHAMPOA","M183","Kallang/Whampoa","Whampoa Dew",2022,"29 Jan 2013",2017,249,103.8555599,1.3250457,"MOP",249,324266.161574002
"321","3-Room","KALLANG/WHAMPOA","M184","Kallang/Whampoa","Bendemeer Light",2021,"30 May 2012",2016,212,103.8603679,1.3152039,"MOP",212,324266.161574002
"322","3-Room","KALLANG/WHAMPOA","M185","Kallang/Whampoa","Kallang Residences",2026,"22 Nov 2016",2021,85,103.869263,1.3215389,"MOP",85,324266.161574002
"323","3-Room","KALLANG/WHAMPOA","M186","Kallang/Whampoa","Towner Crest",2028,"12 Feb 2019",2023,104,103.8738138,1.3143776,"MOP",104,324266.161574002
"324","3-Room","KALLANG/WHAMPOA","M187","Kallang/Whampoa","Kallang Breeze",2027,"12 Feb 2019",2022,88,103.8738138,1.3143776,"MOP",88,324266.161574002
"325","3-Room","PASIR RIS","M188","Pasir Ris","Costa Grove",2030,"12 Aug 2020",2025,160,103.9472922,1.3773575,"MOP",160,357715.015474074
"326","3-Room","PUNGGOL","M189","Punggol","Waterway Terraces II",2020,"25 Apr 2011",2015,118,103.9007848,1.4093609,"MOP",118,375550.909843029
"327","3-Room","PUNGGOL","M190","Punggol","Punggol Point Crown",2028,"11 Sep 2019",2023,98,103.9110284,1.4193302,"MOP",98,375550.909843029
"328","3-Room","PUNGGOL","M191","Punggol","Punggol Topaz",2020,"22 Dec 2010",2015,184,103.8962771,1.4048583,"MOP",184,375550.909843029
"329","3-Room","PUNGGOL","M192","Punggol","Punggol Vue",2022,"22 Jan 2014",2017,266,103.8989687,1.4125294,"MOP",266,375550.909843029
"330","3-Room","PUNGGOL","M193","Punggol","Waterway Ridges",2020,"24 Nov 2011",2015,224,103.9132209,1.4059009,"MOP",224,375550.909843029
"331","3-Room","PUNGGOL","M194","Punggol","Waterway Terraces",2020,"30 Jun 2010",2015,178,103.9007848,1.4093609,"MOP",178,375550.909843029
"333","3-Room","PUNGGOL","M195","Punggol","Waterfront II @ Northshore",2025,"17 Nov 2015",2020,115,103.9017599,1.4184607,"MOP",115,375550.909843029
"334","3-Room","PUNGGOL","M196","Punggol","Northshore StraitsView",2025,"17 Nov 2015",2020,98,103.9022587,1.4160392,"MOP",98,375550.909843029
"336","3-Room","PUNGGOL","M197","Punggol","Punggol Point Woods",2028,"28 Aug 2018",2023,98,103.9107426,1.4171146,"MOP",98,375550.909843029
"337","3-Room","PUNGGOL","M198","Punggol","Northshore Residences I",2025,"27 May 2015",2020,64,103.9016318,1.4162076,"MOP",64,375550.909843029
"338","3-Room","PUNGGOL","M199","Punggol","Punggol Point Cove",2029,"11 Sep 2019",2024,91,103.9110284,1.4193302,"MOP",91,375550.909843029
"339","3-Room","PUNGGOL","M200","Punggol","Punggol Bayview",2023,"22 Jan 2014",2018,202,103.896661,1.4100354,"MOP",202,375550.909843029
"340","3-Room","PUNGGOL","M201","Punggol","Waterway Sunray",2022,"19 Jul 2014",2017,96,103.9188218,1.4006575,"MOP",96,375550.909843029
"342","3-Room","PUNGGOL","M202","Punggol","Waterway View",2022,"26 Sep 2013",2017,190,103.9162668,1.4034847,"MOP",190,375550.909843029
"343","3-Room","PUNGGOL","M203","Punggol","Punggol Edge",2021,"30 May 2012",2016,128,103.9093692,1.3940868,"MOP",128,375550.909843029
"344","3-Room","PUNGGOL","M204","Punggol","Waterway SunDew",2021,"30 May 2012",2016,152,103.9182035,1.4020224,"MOP",152,375550.909843029
"345","3-Room","PUNGGOL","M205","Punggol","Waterfront I @ Northshore",2025,"17 Nov 2015",2020,116,103.9022587,1.4160392,"MOP",116,375550.909843029
"346","3-Room","PUNGGOL","M206","Punggol","Waterway Sunrise II",2026,"14 Feb 2017",2021,95,103.9199535,1.399918,"MOP",95,375550.909843029
"347","3-Room","PUNGGOL","M207","Punggol","Waterway Sunrise I",2026,"22 Nov 2016",2021,80,103.9199535,1.399918,"MOP",80,375550.909843029
"348","3-Room","PUNGGOL","M208","Punggol","Northshore Residences II",2025,"27 May 2015",2020,48,103.9016318,1.4162076,"MOP",48,375550.909843029
"349","3-Room","PUNGGOL","M209","Punggol","Waterway Cascadia",2021,"31 Jul 2012",2016,242,103.8971675,1.4089818,"MOP",242,375550.909843029
"350","3-Room","PUNGGOL","M210","Punggol","Waterway Sunbeam",2020,"12 Jan 2012",2015,185,103.9172233,1.3995851,"MOP",185,375550.909843029
"351","3-Room","PUNGGOL","M211","Punggol","Northshore Trio",2026,"22 Nov 2016",2021,94,103.9022587,1.4160392,"MOP",94,375550.909843029
"352","3-Room","PUNGGOL","M212","Punggol","Waterway Woodcress",2020,"22 Sep 2011",2015,100,103.909202,1.4059811,"MOP",100,375550.909843029
"353","3-Room","PUNGGOL","M213","Punggol","Punggol Point Cove",2028,"28 Aug 2018",2023,92,103.9110284,1.4193302,"MOP",92,375550.909843029
"354","3-Room","PUNGGOL","M214","Punggol","Matilda Edge",2022,"26 Sep 2013",2017,538,103.8947345,1.4019567,"MOP",538,375550.909843029
"356","3-Room","PUNGGOL","M215","Punggol","Punggol Opal",2020,"31 Jul 2012",2015,144,103.8954588,1.4055689,"MOP",144,375550.909843029
"357","3-Room","PUNGGOL","M216","Punggol","Northshore Cove",2026,"14 Feb 2017",2021,114,103.9062482,1.4199116,"MOP",114,375550.909843029
"359","3-Room","PUNGGOL","M217","Punggol","Matilda Court",2022,"19 Jul 2014",2017,112,103.8909577,1.4023353,"MOP",112,375550.909843029
"360","3-Room","QUEENSTOWN","M218","Queenstown","Ghim Moh Edge",2022,"21 Nov 2012",2017,296,103.7837286,1.3087489,"MOP",296,338006.733014678
"361","3-Room","SEMBAWANG","M219","Sembawang","Sun Breeze",2023,"25 Nov 2014",2018,116,103.8171695,1.4439364,"MOP",116,353927.484146835
"363","3-Room","SEMBAWANG","M220","Sembawang","EastBrook @ Canberra",2022,"30 May 2013",2017,263,103.8329686,1.4499034,"MOP",263,353927.484146835
"364","3-Room","SEMBAWANG","M221","Sembawang","Sun Natura",2023,"19 Jul 2014",2018,121,103.813649,1.4468175,"MOP",121,353927.484146835
"366","3-Room","SEMBAWANG","M222","Sembawang","EastGlen @ Canberra",2025,"13 Nov 2018",2020,83,103.8299002,1.4482246,"MOP",83,353927.484146835
"369","3-Room","SEMBAWANG","M223","Sembawang","EastCrown @ Canberra",2022,"26 Mar 2014",2017,264,103.8318826,1.444703,"MOP",264,353927.484146835
"370","3-Room","SEMBAWANG","M224","Sembawang","EastCreek @ Canberra",2024,"24 May 2016",2019,116,103.8304504,1.451342,"MOP",116,353927.484146835
"371","3-Room","SEMBAWANG","M225","Sembawang","EastLace @ Canberra",2022,"26 Mar 2014",2017,140,103.8291887,1.4465795,"MOP",140,353927.484146835
"372","3-Room","SEMBAWANG","M226","Sembawang","EastLink II @ Canberra",2024,"27 May 2015",2019,116,103.8302401,1.4452047,"MOP",116,353927.484146835
"373","3-Room","SEMBAWANG","M227","Sembawang","Canberra Vista",2029,"11 Feb 2020",2024,124,103.8293357,1.4399446,"MOP",124,353927.484146835
"374","3-Room","SEMBAWANG","M228","Sembawang","EastLink I @ Canberra",2024,"27 May 2015",2019,139,103.8302401,1.4452047,"MOP",139,353927.484146835
"375","3-Room","SENGKANG","M229","Sengkang","Fernvale Dew",2027,"22 May 2018",2022,218,103.8701991,1.3898356,"MOP",218,361305.963738824
"376","3-Room","SENGKANG","M230","Sengkang","Fernvale Lea",2020,"12 Jan 2012",2015,100,103.8780162,1.3959613,"MOP",100,361305.963738824
"377","3-Room","SENGKANG","M231","Sengkang","Anchorvale Village",2027,"14 Nov 2017",2022,103,103.888033,1.3965247,"MOP",103,361305.963738824
"378","3-Room","SENGKANG","M232","Sengkang","Compassvale Cape",2021,"21 Mar 2013",2016,196,103.8958944,1.3983812,"MOP",196,361305.963738824
"379","3-Room","SENGKANG","M233","Sengkang","Fernvale Rivergrove",2020,"22 Sep 2011",2015,484,103.8805131,1.3966499,"MOP",484,361305.963738824
"380","3-Room","SENGKANG","M234","Sengkang","Fernvale Riverwalk",2022,"30 Jul 2013",2017,205,103.8803066,1.3914157,"MOP",205,361305.963738824
"381","3-Room","SENGKANG","M235","Sengkang","Rivervale Shores",2027,"01 Aug 2017",2022,174,103.9098991,1.38712,"MOP",174,361305.963738824
"383","3-Room","SENGKANG","M236","Sengkang","Compassvale Mast",2021,"21 Nov 2012",2016,104,103.8941708,1.3904738,"MOP",104,361305.963738824
"384","3-Room","SENGKANG","M237","Sengkang","Rivervale Delta",2021,"21 Nov 2012",2016,102,103.9087122,1.3899685,"MOP",102,361305.963738824
"385","3-Room","SENGKANG","M238","Sengkang","Anchorvale Fields",2023,"25 Nov 2014",2018,63,103.9018617,1.3855816,"MOP",63,361305.963738824
"387","3-Room","SENGKANG","M239","Sengkang","Fernvale Glades",2026,"14 Nov 2017",2021,104,103.8707038,1.3949256,"MOP",104,361305.963738824
"389","3-Room","SENGKANG","M240","Sengkang","Fernvale Woods",2024,"17 Nov 2015",2019,135,103.8709559,1.3913936,"MOP",135,361305.963738824
"390","3-Room","SENGKANG","M241","Sengkang","Fernvale Vines",2028,"12 Feb 2019",2023,92,103.8766905,1.3983676,"MOP",92,361305.963738824
"391","3-Room","SENGKANG","M242","Sengkang","Anchorvale Plains",2025,"24 Feb 2016",2020,96,103.8851063,1.3929584,"MOP",96,361305.963738824
"394","3-Room","TAMPINES","M243","Tampines","Tampines GreenVerge",2026,"17 Aug 2016",2021,244,103.940028,1.3618271,"MOP",244,329702.426580362
"395","3-Room","TAMPINES","M244","Tampines","Tampines GreenCrest",2028,"12 Aug 2020",2023,88,103.9406903,1.3534975,"MOP",88,329702.426580362
"396","3-Room","TAMPINES","M245","Tampines","Tampines GreenGem",2028,"13 Nov 2018",2023,104,103.9356845,1.3435212,"MOP",104,329702.426580362
"401","3-Room","TAMPINES","M246","Tampines","Tampines GreenEdge",2022,"25 Nov 2014",2017,154,103.9554444,1.3631229,"MOP",154,329702.426580362
"403","3-Room","TAMPINES","M247","Tampines","Tampines GreenWeave",2024,"27 May 2015",2019,80,103.9406903,1.3534975,"MOP",80,329702.426580362
"404","3-Room","TAMPINES","M248","Tampines","Tampines GreenForest",2021,"29 Jan 2013",2016,160,103.9291523,1.3508857,"MOP",160,329702.426580362
"405","3-Room","TAMPINES","M249","Tampines","Tampines GreenRidges",2024,"25 Nov 2014",2019,454,103.9370231,1.3605525,"MOP",454,329702.426580362
"407","3-Room","TAMPINES","M250","Tampines","Tampines GreenSpring",2028,"12 Nov 2019",2023,90,103.9405828,1.3546125,"MOP",90,329702.426580362
"408","3-Room","TAMPINES","M251","Tampines","Tampines GreenDew",2026,"06 Feb 2018",2021,84,103.9393898,1.3672436,"MOP",84,329702.426580362
"409","3-Room","TAMPINES","M252","Tampines","Tampines GreenOpal",2030,"12 Aug 2020",2025,94,103.9406903,1.3534975,"MOP",94,329702.426580362
"410","3-Room","TAMPINES","M253","Tampines","Tampines GreenView",2024,"17 Aug 2016",2019,112,103.9346505,1.3653478,"MOP",112,329702.426580362
"411","3-Room","TAMPINES","M254","Tampines","Tampines GreenVines",2027,"22 May 2018",2022,98,103.9447821,1.3655031,"MOP",98,329702.426580362
"412","3-Room","TAMPINES","M255","Tampines","Tampines GreenCourt",2027,"14 Nov 2017",2022,186,103.9418589,1.363855,"MOP",186,329702.426580362
"413","3-Room","TENGAH","M256","Tengah","Garden Vines @ Tengah",2028,"12 Nov 2019",2023,90,103.7317692,1.3611945,"MOP",90,386331.48915
"414","3-Room","TENGAH","M257","Tengah","Garden Vale @ Tengah",2028,"22 May 2019",2023,91,103.7333249,1.3598323,"MOP",91,386331.48915
"415","3-Room","TENGAH","M258","Tengah","Plantation Village",2028,"12 Nov 2019",2023,112,103.7340544,1.3585237,"MOP",112,386331.48915
"416","3-Room","TENGAH","M259","Tengah","Plantation Acres",2027,"22 May 2019",2022,104,103.7308145,1.3555189,"MOP",104,386331.48915
"417","3-Room","TENGAH","M260","Tengah","Plantation Grove",2028,"13 Nov 2018",2023,119,103.7308145,1.3555189,"MOP",119,386331.48915
"418","3-Room","TENGAH","M261","Tengah","Parc Residences @ Tengah",2030,"12 Aug 2020",2025,99,103.7308145,1.3555189,"MOP",99,386331.48915
"419","3-Room","TENGAH","M262","Tengah","Plantation Grange",2027,"12 Nov 2019",2022,91,103.7308252,1.3554331,"MOP",91,386331.48915
"420","3-Room","TOA PAYOH","M263","Toa Payoh","Joo Seng Green",2021,"21 Nov 2012",2016,102,103.8797696,1.3340626,"MOP",102,287888.680997011
"421","3-Room","TOA PAYOH","M264","Toa Payoh","Toa Payoh Ridge",2030,"11 Feb 2020",2025,102,103.8433925,1.3390926,"MOP",102,287888.680997011
"422","3-Room","TOA PAYOH","M265","Toa Payoh","Kim Keat Beacon",2027,"22 May 2018",2022,101,103.85906,1.3321091,"MOP",101,287888.680997011
"424","3-Room","TOA PAYOH","M266","Toa Payoh","Toa Payoh Crest",2022,"21 Nov 2012",2017,311,103.8432735,1.338039,"MOP",311,287888.680997011
"425","3-Room","TOA PAYOH","M267","Toa Payoh","Toa Payoh Apex",2023,"19 Jul 2014",2018,138,103.8551512,1.3337813,"MOP",138,287888.680997011
"427","3-Room","WOODLANDS","M268","Woodlands","Woodlands Glen",2022,"22 Jan 2014",2017,180,103.7987432,1.4310337,"MOP",180,285091.686020432
"428","3-Room","WOODLANDS","M269","Woodlands","Marsiling Greenview",2023,"22 May 2014",2018,194,103.7765789,1.4351462,"MOP",194,285091.686020432
"431","3-Room","WOODLANDS","M270","Woodlands","Woodlands Pasture I & II",2022,"30 May 2013",2017,156,103.8047285,1.4465516,"MOP",156,285091.686020432
"432","3-Room","WOODLANDS","M271","Woodlands","Woodlands Peak",2020,"27 May 2011",2015,95,103.7750909,1.431815,"MOP",95,285091.686020432
"435","3-Room","WOODLANDS","M272","Woodlands","Woodlands Spring",2025,"18 May 2017",2020,72,103.799673,1.438299,"MOP",72,285091.686020432
"437","3-Room","WOODLANDS","M273","Woodlands","UrbanVille @ Woodlands",2031,"12 Aug 2020",2026,144,103.7889597,1.4381922,"MOP",144,285091.686020432
"438","3-Room","WOODLANDS","M274","Woodlands","Woodlands Glade",2026,"06 Feb 2018",2021,90,103.8023954,1.4495841,"MOP",90,285091.686020432
"439","3-Room","WOODLANDS","M275","Woodlands","Admiralty Grove",2022,"26 Nov 2013",2017,240,103.8037955,1.4379932,"MOP",240,285091.686020432
"440","3-Room","WOODLANDS","M276","Woodlands","Champions Green",2028,"22 May 2019",2023,88,103.790016,1.4272453,"MOP",88,285091.686020432
"441","3-Room","WOODLANDS","M277","Woodlands","Marsiling Grove",2027,"18 May 2017",2022,87,103.7745925,1.4367209,"MOP",87,285091.686020432
"442","3-Room","YISHUN","M278","Yishun","Melody Spring @ Yishun 2",2025,"13 Nov 2018",2020,96,103.8540588,1.4266597,"MOP",96,292626.088303439
"443","3-Room","YISHUN","M279","Yishun","Vine Grove @ Yishun",2021,"30 Jul 2013",2016,192,103.8413116,1.4188334,"MOP",192,292626.088303439
"444","3-Room","YISHUN","M280","Yishun","Fern Grove @ Yishun",2022,"26 Mar 2014",2017,251,103.8420054,1.4205609,"MOP",251,292626.088303439
"446","3-Room","YISHUN","M281","Yishun","Khatib Court",2022,"26 Sep 2013",2017,167,103.8328343,1.4182878,"MOP",167,292626.088303439
"447","3-Room","YISHUN","M282","Yishun","Yishun Glen",2027,"28 Aug 2018",2022,168,103.846063,1.4301457,"MOP",168,292626.088303439
"448","3-Room","YISHUN","M283","Yishun","Meadow Spring @ Yishun",2023,"25 Nov 2014",2018,77,103.8524679,1.4249349,"MOP",77,292626.088303439
"450","3-Room","YISHUN","M284","Yishun","Palm Breeze @ Yishun",2021,"26 Sep 2013",2016,96,103.8400963,1.4165297,"MOP",96,292626.088303439
"452","3-Room","YISHUN","M285","Yishun","Angsana Breeze @ Yishun",2022,"30 Jul 2013",2017,186,103.8393106,1.4142876,"MOP",186,292626.088303439
"453","3-Room","YISHUN","M286","Yishun","Blossom Spring @ Yishun",2023,"25 Nov 2014",2018,130,103.8502523,1.4272274,"MOP",130,292626.088303439
"454","3-Room","YISHUN","M287","Yishun","Acacia Breeze",2020,"24 Nov 2011",2015,108,103.843994,1.4193772,"MOP",108,292626.088303439
"455","3-Room","YISHUN","M288","Yishun","Saraca Breeze @ Yishun",2022,"26 Sep 2013",2017,96,103.8443098,1.4158811,"MOP",96,292626.088303439
"456","3-Room","YISHUN","M289","Yishun","Valley Spring @ Yishun",2025,"17 Aug 2016",2020,100,103.8513727,1.4288169,"MOP",100,292626.088303439
"457","3-Room","YISHUN","M290","Yishun","Forest Spring @ Yishun",2026,"18 May 2017",2021,85,103.8524002,1.4258525,"MOP",85,292626.088303439
"458","3-Room","YISHUN","M291","Yishun","Oleander Breeze @ Yishun",2021,"29 Jan 2013",2016,160,103.841643,1.4155753,"MOP",160,292626.088303439
"459","4-Room","ANG MO KIO","M292","Ang Mo Kio","Ang Mo Kio Court",2025,"24 May 2016",2020,234,103.840314,1.3682685,"MOP",234,459588.076087302
"460","4-Room","ANG MO KIO","M293","Ang Mo Kio","Cheng San Court",2023,"27 Sep 2012",2018,363,103.8536139,1.3712675,"MOP",363,459588.076087302
"461","4-Room","ANG MO KIO","M294","Ang Mo Kio","Kebun Baru Edge",2030,"12 Aug 2020",2025,240,103.8345568,1.3703801,"MOP",240,459588.076087302
"462","4-Room","ANG MO KIO","M295","Ang Mo Kio","Yio Chu Kang Beacon",2028,"12 Nov 2019",2023,235,103.8418911,1.3833851,"MOP",235,459588.076087302
"463","4-Room","ANG MO KIO","M296","Ang Mo Kio","Teck Ghee Parkview",2022,"27 Sep 2012",2017,256,103.8572746,1.3685704,"MOP",256,459588.076087302
"464","4-Room","ANG MO KIO","M297","Ang Mo Kio","Kebun Baru Court",2022,"29 Jan 2013",2017,180,103.8344757,1.3688977,"MOP",180,459588.076087302
"466","4-Room","BEDOK","M298","Bedok","Bedok South Horizon",2026,"22 Nov 2016",2021,457,103.947097,1.3181586,"MOP",457,439288.46655279
"467","4-Room","BEDOK","M299","Bedok","Bedok Beacon",2026,"22 Nov 2016",2021,300,103.9277272,1.3240545,"MOP",300,439288.46655279
"468","4-Room","BEDOK","M300","Bedok","Fengshan GreenVille",2023,"21 Nov 2012",2018,570,103.9413278,1.3316628,"MOP",570,439288.46655279
"469","4-Room","BEDOK","M301","Bedok","Ping Yi Greens",2020,"28 Mar 2012",2015,236,103.9232223,1.3275598,"MOP",236,439288.46655279
"470","4-Room","BEDOK","M302","Bedok","Bedok North Woods",2025,"24 May 2016",2020,247,103.9328077,1.3294743,"MOP",247,439288.46655279
"471","4-Room","BIDADARI","M303","Bidadari","Woodleigh Hillside",2027,"18 May 2017",2022,680,103.875035,1.3425497,"MOP",680,604054.33025
"472","4-Room","BIDADARI","M304","Bidadari","Woodleigh Village",2026,"22 Nov 2016",2021,159,103.8707373,1.3391274,"MOP",159,604054.33025
"473","4-Room","BIDADARI","M305","Bidadari","Woodleigh Glen",2026,"22 Nov 2016",2021,428,103.8716317,1.3407875,"MOP",428,604054.33025
"474","4-Room","BIDADARI","M306","Bidadari","Alkaff CourtView",2025,"17 Nov 2015",2020,697,103.8718446,1.3365945,"MOP",697,604054.33025
"475","4-Room","BIDADARI","M307","Bidadari","Alkaff Vista",2024,"17 Nov 2015",2019,199,103.8714553,1.3339626,"MOP",199,604054.33025
"476","4-Room","BIDADARI","M308","Bidadari","Alkaff LakeView",2024,"17 Nov 2015",2019,333,103.8722204,1.3363156,"MOP",333,604054.33025
"477","4-Room","BIDADARI","M309","Bidadari","Alkaff Oasis",2025,"24 Feb 2016",2020,800,103.8727282,1.3346028,"MOP",800,604054.33025
"478","4-Room","BISHAN","M310","Bishan","Bishan Towers",2030,"12 Aug 2020",2025,272,103.8435261,1.3573749,"MOP",272,491030.486338089
"479","4-Room","BUKIT BATOK","M311","Bukit Batok","West Scape",2026,"01 Aug 2017",2021,340,103.742288,1.3620166,"MOP",340,419209.645124418
"481","4-Room","BUKIT BATOK","M312","Bukit Batok","West Valley @ Bukit Batok",2023,"22 May 2014",2018,418,103.7411051,1.3520013,"MOP",418,419209.645124418
"482","4-Room","BUKIT BATOK","M313","Bukit Batok","West Ridges @ Bukit Batok",2023,"26 Nov 2013",2018,591,103.7385589,1.3558015,"MOP",591,419209.645124418
"483","4-Room","BUKIT BATOK","M314","Bukit Batok","West Edge @ Bukit Batok",2024,"11 Feb 2015",2019,646,103.7399914,1.3590445,"MOP",646,419209.645124418
"484","4-Room","BUKIT BATOK","M315","Bukit Batok","Skyline I @ Bukit Batok",2021,"28 Mar 2012",2016,216,103.7454697,1.344939,"MOP",216,419209.645124418
"485","4-Room","BUKIT BATOK","M316","Bukit Batok","Skyline II @ Bukit Batok",2022,"28 Mar 2012",2017,301,103.7480459,1.3437583,"MOP",301,419209.645124418
"486","4-Room","BUKIT BATOK","M317","Bukit Batok","West Quarry @ Bukit Batok",2024,"17 Nov 2015",2019,220,103.7393258,1.3542492,"MOP",220,419209.645124418
"487","4-Room","BUKIT BATOK","M318","Bukit Batok","SkyPeak @ Bukit Batok",2022,"21 Mar 2013",2017,790,103.7546414,1.3447804,"MOP",790,419209.645124418
"488","4-Room","BUKIT BATOK","M319","Bukit Batok","West Terra & Bukit Batok",2023,"24 Sep 2014",2018,616,103.7420189,1.3522808,"MOP",616,419209.645124418
"489","4-Room","BUKIT BATOK","M320","Bukit Batok","West Crest @ Bukit Batok",2022,"22 May 2014",2017,206,103.739209,1.3509816,"MOP",206,419209.645124418
"490","4-Room","BUKIT BATOK","M321","Bukit Batok","West Rock @ Bukit Batok",2023,"11 Feb 2015",2018,218,103.7402898,1.355182,"MOP",218,419209.645124418
"491","4-Room","BUKIT BATOK","M322","Bukit Batok","West Plains @ Bukit Batok",2025,"24 Feb 2016",2020,410,103.7422631,1.3580589,"MOP",410,419209.645124418
"493","4-Room","BUKIT MERAH","M323","Bukit Merah","Depot Heights",2021,"31 Jul 2012",2016,176,103.8092881,1.2810873,"MOP",176,570122.515504011
"494","4-Room","BUKIT MERAH","M324","Bukit Merah","Telok Blangah ParcView",2022,"30 Jul 2013",2017,922,103.8075668,1.2762338,"MOP",922,570122.515504011
"495","4-Room","BUKIT MERAH","M325","Bukit Merah","Telok Blangah Ridgeview",2021,"31 Jul 2012",2016,396,103.8108498,1.2762179,"MOP",396,570122.515504011
"496","4-Room","BUKIT PANJANG","M326","Bukit Panjang","Senja Valley",2026,"24 May 2016",2021,205,103.7634149,1.3885828,"MOP",205,433275.795295303
"497","4-Room","BUKIT PANJANG","M327","Bukit Panjang","Senja Ridges",2026,"24 May 2016",2021,106,103.761881,1.380845,"MOP",106,433275.795295303
"498","4-Room","BUKIT PANJANG","M328","Bukit Panjang","Fajar Hills",2020,"28 Mar 2012",2015,392,103.7708612,1.3810669,"MOP",392,433275.795295303
"499","4-Room","BUKIT PANJANG","M329","Bukit Panjang","Senja Heights",2026,"24 May 2016",2021,214,103.761581,1.381349,"MOP",214,433275.795295303
"501","4-Room","CHOA CHU KANG","M330","Choa Chu Kang","Sunshine Gardens",2020,"12 Jan 2012",2015,788,103.7402665,1.3763898,"MOP",788,404308.33405515
"503","4-Room","CHOA CHU KANG","M331","Choa Chu Kang","Keat Hong Pride",2021,"30 May 2012",2016,656,103.7423207,1.3729806,"MOP",656,404308.33405515
"504","4-Room","CHOA CHU KANG","M332","Choa Chu Kang","Keat Hong Axis",2021,"31 Jul 2012",2016,520,103.7448487,1.375306,"MOP",520,404308.33405515
"505","4-Room","CHOA CHU KANG","M333","Choa Chu Kang","Keat Hong Quad",2021,"27 Sep 2012",2016,334,103.7465288,1.376422,"MOP",334,404308.33405515
"506","4-Room","CHOA CHU KANG","M334","Choa Chu Kang","Keat Hong Verge",2028,"12 Aug 2020",2023,290,103.7456835,1.3850933,"MOP",290,404308.33405515
"507","4-Room","CHOA CHU KANG","M335","Choa Chu Kang","Keat Hong Colours",2021,"29 Jan 2013",2016,484,103.7460476,1.3734679,"MOP",484,404308.33405515
"508","4-Room","CHOA CHU KANG","M336","Choa Chu Kang","Keat Kong Mirage",2021,"21 Nov 2012",2016,559,103.749297,1.3766345,"MOP",559,404308.33405515
"509","4-Room","CHOA CHU KANG","M337","Choa Chu Kang","Keat Hong Crest",2022,"30 May 2013",2017,328,103.7433614,1.3744888,"MOP",328,404308.33405515
"510","4-Room","CHOA CHU KANG","M338","Choa Chu Kang","Teck Whye View",2027,"06 Feb 2018",2022,238,103.7585205,1.3799105,"MOP",238,404308.33405515
"511","4-Room","CLEMENTI","M339","Clementi","Clementi Peaks",2027,"14 Feb 2017",2022,237,103.7680058,1.3107835,"MOP",237,473891.538871453
"512","4-Room","CLEMENTI","M340","Clementi","Clementi Gateway",2021,"31 Jul 2012",2016,144,103.7624548,1.3224914,"MOP",144,473891.538871453
"513","4-Room","CLEMENTI","M341","Clementi","Clementi NorthArc",2027,"14 Feb 2017",2022,529,103.7621079,1.323519,"MOP",529,473891.538871453
"514","4-Room","CLEMENTI","M342","Clementi","Clementi Ridges",2021,"28 Mar 2012",2016,312,103.7645932,1.3195866,"MOP",312,473891.538871453
"515","4-Room","CLEMENTI","M343","Clementi","Clementi Crest",2025,"27 May 2015",2020,229,103.7639162,1.3133352,"MOP",229,473891.538871453
"518","4-Room","GEYLANG","M344","Geylang","Ubi Grove",2027,"06 Feb 2018",2022,993,103.8992134,1.3267949,"MOP",993,449794.42086563
"519","4-Room","GEYLANG","M345","Geylang","Dakota Breeze",2026,"18 May 2017",2021,671,103.8890051,1.3093954,"MOP",671,449794.42086563
"520","4-Room","GEYLANG","M346","Geylang","MacPherson Residency",2020,"28 Mar 2012",2015,426,103.8886982,1.3294,"MOP",426,449794.42086563
"521","4-Room","GEYLANG","M347","Geylang","Dakota One",2030,"12 Aug 2020",2025,334,103.8871123,1.3201362,"MOP",334,449794.42086563
"522","4-Room","GEYLANG","M348","Geylang","Eunos Court",2027,"14 Nov 2017",2022,538,103.901417,1.3205992,"MOP",538,449794.42086563
"523","4-Room","GEYLANG","M349","Geylang","MacPherson Spring",2024,"11 Feb 2015",2019,378,103.8894844,1.3241946,"MOP",378,449794.42086563
"524","4-Room","HOUGANG","M350","Hougang","Buangkok Square",2023,"24 Sep 2014",2018,292,103.8838604,1.3853958,"MOP",292,413394.598721023
"525","4-Room","HOUGANG","M351","Hougang","Buangkok Parkvista",2023,"11 Feb 2015",2018,192,103.8803685,1.3840108,"MOP",192,413394.598721023
"526","4-Room","HOUGANG","M352","Hougang","Hougang Crimson",2021,"30 May 2013",2016,210,103.8818666,1.3752041,"MOP",210,413394.598721023
"527","4-Room","HOUGANG","M353","Hougang","Buangkok Edgeview",2022,"24 Sep 2014",2017,232,103.8811592,1.3847847,"MOP",232,413394.598721023
"528","4-Room","HOUGANG","M354","Hougang","Capeview",2020,"24 Nov 2011",2015,429,103.9040751,1.3792987,"MOP",429,413394.598721023
"529","4-Room","HOUGANG","M355","Hougang","Hougang RiverCourt",2025,"17 Nov 2015",2020,155,103.8946885,1.3626123,"MOP",155,413394.598721023
"530","4-Room","HOUGANG","M356","Hougang","Hougang Meadow",2022,"26 Nov 2013",2017,394,103.8973755,1.369313,"MOP",394,413394.598721023
"531","4-Room","HOUGANG","M357","Hougang","Dew Court",2020,"24 Nov 2011",2015,181,103.8935746,1.3635188,"MOP",181,413394.598721023
"533","4-Room","HOUGANG","M358","Hougang","Buangkok Tropica",2023,"11 Feb 2015",2018,343,103.8820399,1.385146,"MOP",343,413394.598721023
"534","4-Room","HOUGANG","M359","Hougang","Buangkok Woods",2024,"17 Aug 2016",2019,250,103.8832865,1.3851951,"MOP",250,413394.598721023
"535","4-Room","HOUGANG","M360","Hougang","Hougang ParkEdge",2021,"29 Jan 2013",2016,204,103.9006596,1.3763946,"MOP",204,413394.598721023
"536","4-Room","JURONG EAST","M361","Jurong East","Teban View",2020,"22 Sep 2011",2015,333,103.7374775,1.3219125,"MOP",333,416379.29721517
"537","4-Room","JURONG WEST","M362","Jurong West","Spring Haven @ Jurong",2022,"30 May 2013",2017,238,103.7197797,1.3532112,"MOP",238,407917.300193047
"538","4-Room","JURONG WEST","M363","Jurong West","Boon Lay View",2022,"26 Nov 2013",2017,306,103.7109866,1.3504655,"MOP",306,407917.300193047
"540","4-Room","JURONG WEST","M364","Jurong West","Boon Lay Glade",2027,"12 Feb 2019",2022,274,103.6936205,1.3354284,"MOP",274,407917.300193047
"541","4-Room","JURONG WEST","M365","Jurong West","Yung Ho Spring I",2023,"24 Sep 2014",2018,266,103.7233696,1.3268606,"MOP",266,407917.300193047
"543","4-Room","JURONG WEST","M366","Jurong West","Yung Kuang Court",2022,"26 Nov 2013",2017,302,103.7214902,1.3314879,"MOP",302,407917.300193047
"544","4-Room","JURONG WEST","M367","Jurong West","Jurong West Jewel",2027,"12 Feb 2019",2022,157,103.6936205,1.3354284,"MOP",157,407917.300193047
"545","4-Room","KALLANG/WHAMPOA","M368","Kallang/Whampoa","Kallang Residences",2026,"22 Nov 2016",2021,158,103.869263,1.3215389,"MOP",158,457194.153928651
"546","4-Room","KALLANG/WHAMPOA","M369","Kallang/Whampoa","Bendemeer Light",2021,"30 May 2012",2016,412,103.8603679,1.3152039,"MOP",412,457194.153928651
"548","4-Room","KALLANG/WHAMPOA","M370","Kallang/Whampoa","Tenteram Peak",2021,"27 Sep 2012",2016,436,103.8607766,1.3282925,"MOP",436,457194.153928651
"549","4-Room","KALLANG/WHAMPOA","M371","Kallang/Whampoa","St. George’s Towers",2024,"24 Sep 2014",2019,463,103.862117,1.3222715,"MOP",463,457194.153928651
"550","4-Room","KALLANG/WHAMPOA","M372","Kallang/Whampoa","Kempas Residences",2029,"22 May 2019",2024,318,103.8593269,1.3172849,"MOP",318,457194.153928651
"551","4-Room","KALLANG/WHAMPOA","M373","Kallang/Whampoa","Kallang Breeze",2027,"12 Feb 2019",2022,323,103.8738138,1.3143776,"MOP",323,457194.153928651
"552","4-Room","KALLANG/WHAMPOA","M374","Kallang/Whampoa","McNair Towers",2021,"30 May 2012",2016,476,103.8599708,1.3211714,"MOP",476,457194.153928651
"553","4-Room","KALLANG/WHAMPOA","M375","Kallang/Whampoa","Towner Crest",2028,"12 Feb 2019",2023,340,103.8738138,1.3143776,"MOP",340,457194.153928651
"554","4-Room","PASIR RIS","M376","Pasir Ris","Costa Grove",2030,"12 Aug 2020",2025,373,103.9472922,1.3773575,"MOP",373,427127.266839866
"555","4-Room","PUNGGOL","M377","Punggol","Waterfront I @ Northshore",2025,"17 Nov 2015",2020,370,103.9022587,1.4160392,"MOP",370,475936.152615668
"556","4-Room","PUNGGOL","M378","Punggol","Punggol Topaz",2020,"22 Dec 2010",2015,542,103.8962771,1.4048583,"MOP",542,475936.152615668
"557","4-Room","PUNGGOL","M379","Punggol","Waterway Brooks",2020,"22 Sep 2011",2015,691,103.909202,1.4059811,"MOP",691,475936.152615668
"558","4-Room","PUNGGOL","M380","Punggol","Waterway Terraces II",2020,"25 Apr 2011",2015,440,103.9007848,1.4093609,"MOP",440,475936.152615668
"559","4-Room","PUNGGOL","M381","Punggol","Waterway Ridges",2020,"24 Nov 2011",2015,362,103.9132209,1.4059009,"MOP",362,475936.152615668
"560","4-Room","PUNGGOL","M382","Punggol","Waterway SunDew",2021,"30 May 2012",2016,423,103.9182035,1.4020224,"MOP",423,475936.152615668
"561","4-Room","PUNGGOL","M383","Punggol","Northshore Cove",2026,"14 Feb 2017",2021,207,103.9062482,1.4199116,"MOP",207,475936.152615668
"562","4-Room","PUNGGOL","M384","Punggol","Northshore Trio",2026,"22 Nov 2016",2021,117,103.9022587,1.4160392,"MOP",117,475936.152615668
"563","4-Room","PUNGGOL","M385","Punggol","Waterway Terraces",2020,"30 Jun 2010",2015,588,103.9007848,1.4093609,"MOP",588,475936.152615668
"564","4-Room","PUNGGOL","M386","Punggol","Punggol Opal",2020,"31 Jul 2012",2015,254,103.8954588,1.4055689,"MOP",254,475936.152615668
"565","4-Room","PUNGGOL","M387","Punggol","Waterway Sunbeam",2020,"12 Jan 2012",2015,260,103.9172233,1.3995851,"MOP",260,475936.152615668
"566","4-Room","PUNGGOL","M388","Punggol","Waterfront II @ Northshore",2025,"17 Nov 2015",2020,387,103.9017599,1.4184607,"MOP",387,475936.152615668
"567","4-Room","PUNGGOL","M389","Punggol","Matilda Portico",2021,"21 Mar 2013",2016,251,103.8956448,1.4028181,"MOP",251,475936.152615668
"568","4-Room","PUNGGOL","M390","Punggol","Punggol Edge",2021,"30 May 2012",2016,400,103.9093692,1.3940868,"MOP",400,475936.152615668
"569","4-Room","PUNGGOL","M391","Punggol","Waterway Cascadia",2021,"31 Jul 2012",2016,500,103.8971675,1.4089818,"MOP",500,475936.152615668
"570","4-Room","PUNGGOL","M392","Punggol","Northshore Residences I",2025,"27 May 2015",2020,227,103.9016318,1.4162076,"MOP",227,475936.152615668
"571","4-Room","PUNGGOL","M393","Punggol","Punggol Point Cove",2029,"11 Sep 2019",2024,371,103.9110284,1.4193302,"MOP",371,475936.152615668
"572","4-Room","PUNGGOL","M394","Punggol","Matilda Sundeck",2025,"22 Nov 2016",2020,295,103.8921881,1.4028105,"MOP",295,475936.152615668
"573","4-Room","PUNGGOL","M395","Punggol","Northshore StraitsView",2025,"17 Nov 2015",2020,264,103.9022587,1.4160392,"MOP",264,475936.152615668
"574","4-Room","PUNGGOL","M396","Punggol","Punggol Point Woods",2028,"28 Aug 2018",2023,333,103.9107426,1.4171146,"MOP",333,475936.152615668
"575","4-Room","PUNGGOL","M397","Punggol","The Verandah @ Matilda",2022,"26 Sep 2013",2017,258,103.8934565,1.4026592,"MOP",258,475936.152615668
"576","4-Room","PUNGGOL","M398","Punggol","Waterway View",2022,"26 Sep 2013",2017,526,103.9162668,1.4034847,"MOP",526,475936.152615668
"577","4-Room","PUNGGOL","M399","Punggol","Punggol Point Crown",2028,"11 Sep 2019",2023,501,103.9110284,1.4193302,"MOP",501,475936.152615668
"578","4-Room","PUNGGOL","M400","Punggol","Waterway Woodcress",2020,"22 Sep 2011",2015,350,103.909202,1.4059811,"MOP",350,475936.152615668
"579","4-Room","PUNGGOL","M401","Punggol","Matilda Court",2022,"19 Jul 2014",2017,380,103.8909577,1.4023353,"MOP",380,475936.152615668
"580","4-Room","PUNGGOL","M402","Punggol","Punggol Bayview",2023,"22 Jan 2014",2018,462,103.896661,1.4100354,"MOP",462,475936.152615668
"581","4-Room","PUNGGOL","M403","Punggol","Northshore Edge",2026,"14 Nov 2017",2021,192,103.9012265,1.4148738,"MOP",192,475936.152615668
"582","4-Room","PUNGGOL","M404","Punggol","Punggol Point Cove",2028,"28 Aug 2018",2023,312,103.9110284,1.4193302,"MOP",312,475936.152615668
"583","4-Room","PUNGGOL","M405","Punggol","Waterway Sunrise I",2026,"22 Nov 2016",2021,341,103.9199535,1.399918,"MOP",341,475936.152615668
"585","4-Room","PUNGGOL","M406","Punggol","Northshore Residences II",2025,"27 May 2015",2020,292,103.9016318,1.4162076,"MOP",292,475936.152615668
"586","4-Room","PUNGGOL","M407","Punggol","Matilda Edge",2022,"26 Sep 2013",2017,600,103.8947345,1.4019567,"MOP",600,475936.152615668
"587","4-Room","PUNGGOL","M408","Punggol","Waterway Sunrise II",2026,"14 Feb 2017",2021,516,103.9199535,1.399918,"MOP",516,475936.152615668
"588","4-Room","PUNGGOL","M409","Punggol","Waterway Sunray",2022,"19 Jul 2014",2017,194,103.9188218,1.4006575,"MOP",194,475936.152615668
"589","4-Room","QUEENSTOWN","M410","Queenstown","Ghim Moh Edge",2022,"21 Nov 2012",2017,661,103.7837286,1.3087489,"MOP",661,506168.973255238
"590","4-Room","SEMBAWANG","M411","Sembawang","EastCreek @ Canberra",2024,"24 May 2016",2019,350,103.8304504,1.451342,"MOP",350,412614.482900439
"591","4-Room","SEMBAWANG","M412","Sembawang","EastWave @ Canberra",2022,"30 May 2013",2017,379,103.8313172,1.4455753,"MOP",379,412614.482900439
"592","4-Room","SEMBAWANG","M413","Sembawang","EastGlen @ Canberra",2025,"13 Nov 2018",2020,131,103.8299002,1.4482246,"MOP",131,412614.482900439
"593","4-Room","SEMBAWANG","M414","Sembawang","EastLink II @ Canberra",2024,"27 May 2015",2019,151,103.8302401,1.4452047,"MOP",151,412614.482900439
"594","4-Room","SEMBAWANG","M415","Sembawang","EastLawn @ Canberra",2022,"26 Nov 2013",2017,163,103.8319959,1.4482245,"MOP",163,412614.482900439
"595","4-Room","SEMBAWANG","M416","Sembawang","EastDelta @ Canberra",2024,"17 Aug 2016",2019,304,103.8349355,1.4452428,"MOP",304,412614.482900439
"596","4-Room","SEMBAWANG","M417","Sembawang","EastLink I @ Canberra",2024,"27 May 2015",2019,232,103.8302401,1.4452047,"MOP",232,412614.482900439
"597","4-Room","SEMBAWANG","M418","Sembawang","EastBank @ Canberra",2021,"30 May 2013",2016,193,103.8336057,1.4472603,"MOP",193,412614.482900439
"598","4-Room","SEMBAWANG","M419","Sembawang","EastLace @ Canberra",2022,"26 Mar 2014",2017,200,103.8291887,1.4465795,"MOP",200,412614.482900439
"599","4-Room","SEMBAWANG","M420","Sembawang","EastBrook @ Canberra",2022,"30 May 2013",2017,627,103.8329686,1.4499034,"MOP",627,412614.482900439
"600","4-Room","SEMBAWANG","M421","Sembawang","Canberra Vista",2029,"11 Feb 2020",2024,385,103.8293357,1.4399446,"MOP",385,412614.482900439
"601","4-Room","SEMBAWANG","M422","Sembawang","Sun Breeze",2023,"25 Nov 2014",2018,306,103.8171695,1.4439364,"MOP",306,412614.482900439
"602","4-Room","SEMBAWANG","M423","Sembawang","Sun Natura",2023,"19 Jul 2014",2018,397,103.813649,1.4468175,"MOP",397,412614.482900439
"603","4-Room","SEMBAWANG","M424","Sembawang","EastCrown @ Canberra",2022,"26 Mar 2014",2017,370,103.8318826,1.444703,"MOP",370,412614.482900439
"604","4-Room","SENGKANG","M425","Sengkang","Fernvale Dew",2027,"22 May 2018",2022,354,103.8701991,1.3898356,"MOP",354,450448.299633076
"605","4-Room","SENGKANG","M426","Sengkang","Rivervale Shores",2027,"01 Aug 2017",2022,678,103.9098991,1.38712,"MOP",678,450448.299633076
"606","4-Room","SENGKANG","M427","Sengkang","Compassvale Boardwalk",2020,"30 May 2012",2015,252,103.8959766,1.3965841,"MOP",252,450448.299633076
"607","4-Room","SENGKANG","M428","Sengkang","Rivervale Delta",2021,"21 Nov 2012",2016,425,103.9087122,1.3899685,"MOP",425,450448.299633076
"608","4-Room","SENGKANG","M429","Sengkang","Fernvale Lea",2020,"12 Jan 2012",2015,600,103.8780162,1.3959613,"MOP",600,450448.299633076
"609","4-Room","SENGKANG","M430","Sengkang","Fernvale Rivergrove",2020,"22 Sep 2011",2015,892,103.8805131,1.3966499,"MOP",892,450448.299633076
"610","4-Room","SENGKANG","M431","Sengkang","Fernvale Woods",2024,"17 Nov 2015",2019,226,103.8709559,1.3913936,"MOP",226,450448.299633076
"611","4-Room","SENGKANG","M432","Sengkang","Compassvale Cape",2021,"21 Mar 2013",2016,588,103.8958944,1.3983812,"MOP",588,450448.299633076
"612","4-Room","SENGKANG","M433","Sengkang","Anchorvale Parkview",2022,"26 Mar 2014",2017,268,103.8896595,1.399153,"MOP",268,450448.299633076
"613","4-Room","SENGKANG","M434","Sengkang","Fernvale Vines",2028,"12 Feb 2019",2023,216,103.8766905,1.3983676,"MOP",216,450448.299633076
"614","4-Room","SENGKANG","M435","Sengkang","Compassvale Mast",2021,"21 Nov 2012",2016,465,103.8941708,1.3904738,"MOP",465,450448.299633076
"616","4-Room","SENGKANG","M436","Sengkang","Fernvale Riverwalk",2022,"30 Jul 2013",2017,401,103.8803066,1.3914157,"MOP",401,450448.299633076
"617","4-Room","SENGKANG","M437","Sengkang","Fernvale Acres",2026,"13 Nov 2018",2021,198,103.8713274,1.389063,"MOP",198,450448.299633076
"618","4-Room","SENGKANG","M438","Sengkang","Anchorvale Fields",2023,"25 Nov 2014",2018,224,103.9018617,1.3855816,"MOP",224,450448.299633076
"619","4-Room","SENGKANG","M439","Sengkang","Fernvale Glades",2026,"14 Nov 2017",2021,390,103.8707038,1.3949256,"MOP",390,450448.299633076
"620","4-Room","SENGKANG","M440","Sengkang","Anchorvale Plains",2025,"24 Feb 2016",2020,260,103.8851063,1.3929584,"MOP",260,450448.299633076
"621","4-Room","SENGKANG","M441","Sengkang","Compassvale Helm",2021,"21 Mar 2013",2016,253,103.8908012,1.3819117,"MOP",253,450448.299633076
"623","4-Room","TAMPINES","M442","Tampines","Tampines GreenBloom",2025,"14 Feb 2017",2020,153,103.9300129,1.3526458,"MOP",153,431791.190035814
"624","4-Room","TAMPINES","M443","Tampines","Tampines GreenForest",2021,"29 Jan 2013",2016,264,103.9291523,1.3508857,"MOP",264,431791.190035814
"625","4-Room","TAMPINES","M444","Tampines","Tampines GreenFoliage",2026,"06 Feb 2018",2021,310,103.943079,1.365855,"MOP",310,431791.190035814
"626","4-Room","TAMPINES","M445","Tampines","Tampines GreenGlade",2028,"12 Aug 2020",2023,179,103.9346015,1.3670023,"MOP",179,431791.190035814
"627","4-Room","TAMPINES","M446","Tampines","Tampines GreenDew",2026,"06 Feb 2018",2021,334,103.9393898,1.3672436,"MOP",334,431791.190035814
"628","4-Room","TAMPINES","M447","Tampines","Tampines GreenSpring",2028,"12 Nov 2019",2023,218,103.9405828,1.3546125,"MOP",218,431791.190035814
"629","4-Room","TAMPINES","M448","Tampines","Tampines Greenlace",2021,"27 Sep 2012",2016,215,103.9313057,1.3567879,"MOP",215,431791.190035814
"630","4-Room","TAMPINES","M449","Tampines","Tampines GreenGlen",2028,"11 Sep 2019",2023,330,103.9483686,1.3554734,"MOP",330,431791.190035814
"631","4-Room","TAMPINES","M450","Tampines","Tampines GreenCourt",2027,"14 Nov 2017",2022,1228,103.9418589,1.363855,"MOP",1228,431791.190035814
"632","4-Room","TAMPINES","M451","Tampines","Tampines GreenView",2024,"17 Aug 2016",2019,395,103.9346505,1.3653478,"MOP",395,431791.190035814
"633","4-Room","TAMPINES","M452","Tampines","Tampines GreenRidges",2024,"25 Nov 2014",2019,740,103.9370231,1.3605525,"MOP",740,431791.190035814
"634","4-Room","TAMPINES","M453","Tampines","Tampines GreenGem",2028,"13 Nov 2018",2023,492,103.9356845,1.3435212,"MOP",492,431791.190035814
"635","4-Room","TAMPINES","M454","Tampines","Tampines GreenCrest",2028,"12 Aug 2020",2023,146,103.9406903,1.3534975,"MOP",146,431791.190035814
"636","4-Room","TAMPINES","M455","Tampines","Tampines GreenWeave",2024,"27 May 2015",2019,465,103.9406903,1.3534975,"MOP",465,431791.190035814
"637","4-Room","TAMPINES","M456","Tampines","Tampines GreenVerge",2026,"17 Aug 2016",2021,1106,103.940028,1.3618271,"MOP",1106,431791.190035814
"638","4-Room","TAMPINES","M457","Tampines","Tampines GreenVines",2027,"22 May 2018",2022,716,103.9447821,1.3655031,"MOP",716,431791.190035814
"639","4-Room","TAMPINES","M458","Tampines","Tampines GreenFlora",2025,"14 Feb 2017",2020,153,103.930882,1.3542245,"MOP",153,431791.190035814
"640","4-Room","TAMPINES","M459","Tampines","Tampines GreenEdge",2022,"25 Nov 2014",2017,198,103.9554444,1.3631229,"MOP",198,431791.190035814
"641","4-Room","TAMPINES","M460","Tampines","Tampines GreenOpal",2030,"12 Aug 2020",2025,546,103.9406903,1.3534975,"MOP",546,431791.190035814
"642","4-Room","TENGAH","M461","Tengah","Plantation Acres",2027,"22 May 2019",2022,287,103.7308145,1.3555189,"MOP",287,510128.6732
"643","4-Room","TENGAH","M462","Tengah","Plantation Village",2028,"12 Nov 2019",2023,484,103.7340544,1.3585237,"MOP",484,510128.6732
"644","4-Room","TENGAH","M463","Tengah","Plantation Grange",2027,"12 Nov 2019",2022,406,103.7308252,1.3554331,"MOP",406,510128.6732
"645","4-Room","TENGAH","M464","Tengah","Garden Vale @ Tengah",2028,"22 May 2019",2023,220,103.7333249,1.3598323,"MOP",220,510128.6732
"646","4-Room","TENGAH","M465","Tengah","Plantation Grove",2028,"13 Nov 2018",2023,536,103.7308145,1.3555189,"MOP",536,510128.6732
"647","4-Room","TENGAH","M466","Tengah","Parc Residences @ Tengah",2030,"12 Aug 2020",2025,281,103.7308145,1.3555189,"MOP",281,510128.6732
"648","4-Room","TENGAH","M467","Tengah","Garden Vines @ Tengah",2028,"12 Nov 2019",2023,201,103.7317692,1.3611945,"MOP",201,510128.6732
"649","4-Room","TOA PAYOH","M468","Toa Payoh","Kim Keat Ripples",2029,"11 Feb 2020",2024,558,103.8585033,1.3335284,"MOP",558,491164.61626802
"650","4-Room","TOA PAYOH","M469","Toa Payoh","Toa Payoh Ridge",2030,"11 Feb 2020",2025,653,103.8433925,1.3390926,"MOP",653,491164.61626802
"651","4-Room","TOA PAYOH","M470","Toa Payoh","Joo Seng Green",2021,"21 Nov 2012",2016,146,103.8797696,1.3340626,"MOP",146,491164.61626802
"652","4-Room","TOA PAYOH","M471","Toa Payoh","Toa Payoh Crest",2022,"21 Nov 2012",2017,464,103.8432735,1.338039,"MOP",464,491164.61626802
"653","4-Room","TOA PAYOH","M472","Toa Payoh","Kim Keat Beacon",2027,"22 May 2018",2022,441,103.85906,1.3321091,"MOP",441,491164.61626802
"654","4-Room","TOA PAYOH","M473","Toa Payoh","Toa Payoh Apex",2023,"19 Jul 2014",2018,419,103.8551512,1.3337813,"MOP",419,491164.61626802
"657","4-Room","WOODLANDS","M474","Woodlands","Admiralty Flora",2022,"22 May 2014",2017,221,103.8060758,1.4401822,"MOP",221,363082.545705798
"658","4-Room","WOODLANDS","M475","Woodlands","Champions Bliss",2029,"12 Aug 2020",2024,199,103.7858113,1.4410489,"MOP",199,363082.545705798
"659","4-Room","WOODLANDS","M476","Woodlands","Admiralty Grove",2022,"26 Nov 2013",2017,333,103.8037955,1.4379932,"MOP",333,363082.545705798
"661","4-Room","WOODLANDS","M477","Woodlands","Woodlands Glen",2022,"22 Jan 2014",2017,408,103.7987432,1.4310337,"MOP",408,363082.545705798
"662","4-Room","WOODLANDS","M478","Woodlands","TreeTrail @ Woodlands",2021,"27 Sep 2012",2016,418,103.793133,1.437782,"MOP",418,363082.545705798
"663","4-Room","WOODLANDS","M479","Woodlands","Woodlands Spring",2025,"18 May 2017",2020,100,103.799673,1.438299,"MOP",100,363082.545705798
"664","4-Room","WOODLANDS","M480","Woodlands","Marsiling Greenview",2023,"22 May 2014",2018,389,103.7765789,1.4351462,"MOP",389,363082.545705798
"666","4-Room","WOODLANDS","M481","Woodlands","UrbanVille @ Woodlands",2031,"12 Aug 2020",2026,507,103.7889597,1.4381922,"MOP",507,363082.545705798
"667","4-Room","WOODLANDS","M482","Woodlands","Champions Green",2028,"22 May 2019",2023,157,103.790016,1.4272453,"MOP",157,363082.545705798
"668","4-Room","WOODLANDS","M483","Woodlands","Woodlands Glade",2026,"06 Feb 2018",2021,164,103.8023954,1.4495841,"MOP",164,363082.545705798
"669","4-Room","WOODLANDS","M484","Woodlands","Marsiling Grove",2027,"18 May 2017",2022,421,103.7745925,1.4367209,"MOP",421,363082.545705798
"670","4-Room","WOODLANDS","M485","Woodlands","Woodlands Pasture I & II",2022,"30 May 2013",2017,509,103.8047285,1.4465516,"MOP",509,363082.545705798
"671","4-Room","YISHUN","M486","Yishun","Forest Spring @ Yishun",2026,"18 May 2017",2021,251,103.8524002,1.4258525,"MOP",251,370088.926683768
"672","4-Room","YISHUN","M487","Yishun","Casa Spring @ Yishun",2026,"22 May 2018",2021,312,103.8501402,1.4257168,"MOP",312,370088.926683768
"673","4-Room","YISHUN","M488","Yishun","Park Grove @ Yishun",2022,"19 Jul 2014",2017,204,103.8434644,1.4215242,"MOP",204,370088.926683768
"674","4-Room","YISHUN","M489","Yishun","Vine Grove @ Yishun",2021,"30 Jul 2013",2016,324,103.8413116,1.4188334,"MOP",324,370088.926683768
"675","4-Room","YISHUN","M490","Yishun","Blossom Spring @ Yishun",2023,"25 Nov 2014",2018,260,103.8502523,1.4272274,"MOP",260,370088.926683768
"676","4-Room","YISHUN","M491","Yishun","Palm Breeze @ Yishun",2021,"26 Sep 2013",2016,274,103.8400963,1.4165297,"MOP",274,370088.926683768
"677","4-Room","YISHUN","M492","Yishun","Melody Spring @ Yishun 2",2025,"13 Nov 2018",2020,252,103.8540588,1.4266597,"MOP",252,370088.926683768
"678","4-Room","YISHUN","M493","Yishun","Valley Spring @ Yishun",2025,"17 Aug 2016",2020,308,103.8513727,1.4288169,"MOP",308,370088.926683768
"679","4-Room","YISHUN","M494","Yishun","Fern Grove @ Yishun",2022,"26 Mar 2014",2017,443,103.8420054,1.4205609,"MOP",443,370088.926683768
"681","4-Room","YISHUN","M495","Yishun","Meadow Spring @ Yishun",2023,"25 Nov 2014",2018,210,103.8524679,1.4249349,"MOP",210,370088.926683768
"682","4-Room","YISHUN","M496","Yishun","Oleander Breeze @ Yishun",2021,"29 Jan 2013",2016,348,103.841643,1.4155753,"MOP",348,370088.926683768
"683","4-Room","YISHUN","M497","Yishun","Saraca Breeze @ Yishun",2022,"26 Sep 2013",2017,168,103.8443098,1.4158811,"MOP",168,370088.926683768
"684","4-Room","YISHUN","M498","Yishun","Acacia Breeze",2020,"24 Nov 2011",2015,418,103.843994,1.4193772,"MOP",418,370088.926683768
"685","4-Room","YISHUN","M499","Yishun","Yishun Glen",2027,"28 Aug 2018",2022,490,103.846063,1.4301457,"MOP",490,370088.926683768
"686","4-Room","YISHUN","M500","Yishun","Melody Spring @ Yishun 1",2026,"28 Aug 2018",2021,252,103.8540588,1.4266597,"MOP",252,370088.926683768
"687","4-Room","YISHUN","M501","Yishun","Angsana Breeze @ Yishun",2022,"30 Jul 2013",2017,520,103.8393106,1.4142876,"MOP",520,370088.926683768
"688","5-Room","ANG MO KIO","M502","Ang Mo Kio","Kebun Baru Court",2022,"29 Jan 2013",2017,103,103.8344757,1.3688977,"MOP",103,645817.586092153
"689","5-Room","ANG MO KIO","M503","Ang Mo Kio","Kebun Baru Edge",2030,"12 Aug 2020",2025,140,103.8345568,1.3703801,"MOP",140,645817.586092153
"691","5-Room","ANG MO KIO","M504","Ang Mo Kio","Teck Ghee Parkview",2022,"27 Sep 2012",2017,190,103.8572746,1.3685704,"MOP",190,645817.586092153
"693","5-Room","ANG MO KIO","M505","Ang Mo Kio","Ang Mo Kio Court",2025,"24 May 2016",2020,148,103.840314,1.3682685,"MOP",148,645817.586092153
"696","5-Room","BEDOK","M506","Bedok","Fengshan GreenVille",2023,"21 Nov 2012",2018,108,103.9413278,1.3316628,"MOP",108,590173.600370676
"699","5-Room","BEDOK","M507","Bedok","Bedok South Horizon",2026,"22 Nov 2016",2021,274,103.947097,1.3181586,"MOP",274,590173.600370676
"700","5-Room","BIDADARI","M508","Bidadari","Alkaff Vista",2024,"17 Nov 2015",2019,151,103.8714553,1.3339626,"MOP",151,759509.9548
"701","5-Room","BIDADARI","M509","Bidadari","Alkaff Oasis",2025,"24 Feb 2016",2020,165,103.8727282,1.3346028,"MOP",165,759509.9548
"704","5-Room","BIDADARI","M510","Bidadari","Woodleigh Hillside",2027,"18 May 2017",2022,326,103.875035,1.3425497,"MOP",326,759509.9548
"709","5-Room","BUKIT BATOK","M511","Bukit Batok","West Rock @ Bukit Batok",2023,"11 Feb 2015",2018,172,103.7402898,1.355182,"MOP",172,574959.980058394
"711","5-Room","BUKIT BATOK","M512","Bukit Batok","West Ridges @ Bukit Batok",2023,"26 Nov 2013",2018,550,103.7385589,1.3558015,"MOP",550,574959.980058394
"712","5-Room","BUKIT BATOK","M513","Bukit Batok","West Edge @ Bukit Batok",2024,"11 Feb 2015",2019,212,103.7399914,1.3590445,"MOP",212,574959.980058394
"713","5-Room","BUKIT BATOK","M514","Bukit Batok","SkyPeak @ Bukit Batok",2022,"21 Mar 2013",2017,430,103.7546414,1.3447804,"MOP",430,574959.980058394
"714","5-Room","BUKIT BATOK","M515","Bukit Batok","Skyline I @ Bukit Batok",2021,"28 Mar 2012",2016,194,103.7454697,1.344939,"MOP",194,574959.980058394
"715","5-Room","BUKIT BATOK","M516","Bukit Batok","West Crest @ Bukit Batok",2022,"22 May 2014",2017,189,103.739209,1.3509816,"MOP",189,574959.980058394
"716","5-Room","BUKIT BATOK","M517","Bukit Batok","West Scape",2026,"01 Aug 2017",2021,178,103.742288,1.3620166,"MOP",178,574959.980058394
"717","5-Room","BUKIT BATOK","M518","Bukit Batok","West Terra & Bukit Batok",2023,"24 Sep 2014",2018,454,103.7420189,1.3522808,"MOP",454,574959.980058394
"719","5-Room","BUKIT BATOK","M519","Bukit Batok","Skyline II @ Bukit Batok",2022,"28 Mar 2012",2017,307,103.7480459,1.3437583,"MOP",307,574959.980058394
"720","5-Room","BUKIT BATOK","M520","Bukit Batok","West Plains @ Bukit Batok",2025,"24 Feb 2016",2020,384,103.7422631,1.3580589,"MOP",384,574959.980058394
"725","5-Room","BUKIT PANJANG","M521","Bukit Panjang","Senja Ridges",2026,"24 May 2016",2021,62,103.761881,1.380845,"MOP",62,509287.053486049
"727","5-Room","BUKIT PANJANG","M522","Bukit Panjang","Fajar Hills",2020,"28 Mar 2012",2015,324,103.7708612,1.3810669,"MOP",324,509287.053486049
"728","5-Room","BUKIT PANJANG","M523","Bukit Panjang","Senja Valley",2026,"24 May 2016",2021,79,103.7634149,1.3885828,"MOP",79,509287.053486049
"730","5-Room","CHOA CHU KANG","M524","Choa Chu Kang","Keat Hong Axis",2021,"31 Jul 2012",2016,372,103.7448487,1.375306,"MOP",372,478833.720754571
"732","5-Room","CHOA CHU KANG","M525","Choa Chu Kang","Keat Hong Colours",2021,"29 Jan 2013",2016,348,103.7460476,1.3734679,"MOP",348,478833.720754571
"733","5-Room","CHOA CHU KANG","M526","Choa Chu Kang","Keat Kong Mirage",2021,"21 Nov 2012",2016,486,103.749297,1.3766345,"MOP",486,478833.720754571
"734","5-Room","CHOA CHU KANG","M527","Choa Chu Kang","Sunshine Gardens",2020,"12 Jan 2012",2015,518,103.7402665,1.3763898,"MOP",518,478833.720754571
"735","5-Room","CHOA CHU KANG","M528","Choa Chu Kang","Keat Hong Crest",2022,"30 May 2013",2017,208,103.7433614,1.3744888,"MOP",208,478833.720754571
"736","5-Room","CHOA CHU KANG","M529","Choa Chu Kang","Keat Hong Quad",2021,"27 Sep 2012",2016,190,103.7465288,1.376422,"MOP",190,478833.720754571
"738","5-Room","CHOA CHU KANG","M530","Choa Chu Kang","Keat Hong Pride",2021,"30 May 2012",2016,407,103.7423207,1.3729806,"MOP",407,478833.720754571
"741","5-Room","CLEMENTI","M531","Clementi","Clementi Ridges",2021,"28 Mar 2012",2016,216,103.7645932,1.3195866,"MOP",216,614812.477800971
"742","5-Room","CLEMENTI","M532","Clementi","Clementi Peaks",2027,"14 Feb 2017",2022,117,103.7680058,1.3107835,"MOP",117,614812.477800971
"743","5-Room","CLEMENTI","M533","Clementi","Clementi NorthArc",2027,"14 Feb 2017",2022,404,103.7621079,1.323519,"MOP",404,614812.477800971
"744","5-Room","CLEMENTI","M534","Clementi","Clementi Crest",2025,"27 May 2015",2020,156,103.7639162,1.3133352,"MOP",156,614812.477800971
"755","5-Room","HOUGANG","M535","Hougang","Hougang ParkEdge",2021,"29 Jan 2013",2016,238,103.9006596,1.3763946,"MOP",238,516812.083845877
"756","5-Room","HOUGANG","M536","Hougang","Capeview",2020,"24 Nov 2011",2015,244,103.9040751,1.3792987,"MOP",244,516812.083845877
"761","5-Room","HOUGANG","M537","Hougang","Buangkok Edgeview",2022,"24 Sep 2014",2017,179,103.8811592,1.3847847,"MOP",179,516812.083845877
"763","5-Room","HOUGANG","M538","Hougang","Hougang RiverCourt",2025,"17 Nov 2015",2020,83,103.8946885,1.3626123,"MOP",83,516812.083845877
"768","5-Room","JURONG WEST","M539","Jurong West","Boon Lay Glade",2027,"12 Feb 2019",2022,97,103.6936205,1.3354284,"MOP",97,491255.670239681
"769","5-Room","JURONG WEST","M540","Jurong West","Jurong West Jewel",2027,"12 Feb 2019",2022,153,103.6936205,1.3354284,"MOP",153,491255.670239681
"770","5-Room","JURONG WEST","M541","Jurong West","Boon Lay View",2022,"26 Nov 2013",2017,252,103.7109866,1.3504655,"MOP",252,491255.670239681
"772","5-Room","JURONG WEST","M542","Jurong West","Yung Kuang Court",2022,"26 Nov 2013",2017,226,103.7214902,1.3314879,"MOP",226,491255.670239681
"783","5-Room","PASIR RIS","M543","Pasir Ris","Costa Grove",2030,"12 Aug 2020",2025,325,103.9472922,1.3773575,"MOP",325,506802.403823087
"784","5-Room","PUNGGOL","M544","Punggol","Punggol Point Crown",2028,"11 Sep 2019",2023,230,103.9110284,1.4193302,"MOP",230,523159.806982215
"785","5-Room","PUNGGOL","M545","Punggol","Waterway Terraces II",2020,"25 Apr 2011",2015,246,103.9007848,1.4093609,"MOP",246,523159.806982215
"786","5-Room","PUNGGOL","M546","Punggol","Matilda Sundeck",2025,"22 Nov 2016",2020,195,103.8921881,1.4028105,"MOP",195,523159.806982215
"788","5-Room","PUNGGOL","M547","Punggol","Waterway Woodcress",2020,"22 Sep 2011",2015,244,103.909202,1.4059811,"MOP",244,523159.806982215
"789","5-Room","PUNGGOL","M548","Punggol","Punggol Topaz",2020,"22 Dec 2010",2015,284,103.8962771,1.4048583,"MOP",284,523159.806982215
"790","5-Room","PUNGGOL","M549","Punggol","Northshore Cove",2026,"14 Feb 2017",2021,170,103.9062482,1.4199116,"MOP",170,523159.806982215
"792","5-Room","PUNGGOL","M550","Punggol","Northshore StraitsView",2025,"17 Nov 2015",2020,190,103.9022587,1.4160392,"MOP",190,523159.806982215
"793","5-Room","PUNGGOL","M551","Punggol","Waterway View",2022,"26 Sep 2013",2017,341,103.9162668,1.4034847,"MOP",341,523159.806982215
"794","5-Room","PUNGGOL","M552","Punggol","Waterway Sunbeam",2020,"12 Jan 2012",2015,216,103.9172233,1.3995851,"MOP",216,523159.806982215
"795","5-Room","PUNGGOL","M553","Punggol","Northshore Residences I",2025,"27 May 2015",2020,89,103.9016318,1.4162076,"MOP",89,523159.806982215
"796","5-Room","PUNGGOL","M554","Punggol","Punggol Point Cove",2029,"11 Sep 2019",2024,173,103.9110284,1.4193302,"MOP",173,523159.806982215
"797","5-Room","PUNGGOL","M555","Punggol","Punggol Edge",2021,"30 May 2012",2016,160,103.9093692,1.3940868,"MOP",160,523159.806982215
"798","5-Room","PUNGGOL","M556","Punggol","Waterway Brooks",2020,"22 Sep 2011",2015,465,103.909202,1.4059811,"MOP",465,523159.806982215
"800","5-Room","PUNGGOL","M557","Punggol","Waterway Cascadia",2021,"31 Jul 2012",2016,267,103.8971675,1.4089818,"MOP",267,523159.806982215
"803","5-Room","PUNGGOL","M558","Punggol","The Verandah @ Matilda",2022,"26 Sep 2013",2017,223,103.8934565,1.4026592,"MOP",223,523159.806982215
"804","5-Room","PUNGGOL","M559","Punggol","Waterfront I @ Northshore",2025,"17 Nov 2015",2020,106,103.9022587,1.4160392,"MOP",106,523159.806982215
"805","5-Room","PUNGGOL","M560","Punggol","Waterfront II @ Northshore",2025,"17 Nov 2015",2020,141,103.9017599,1.4184607,"MOP",141,523159.806982215
"806","5-Room","PUNGGOL","M561","Punggol","Northshore Edge",2026,"14 Nov 2017",2021,196,103.9012265,1.4148738,"MOP",196,523159.806982215
"807","5-Room","PUNGGOL","M562","Punggol","Punggol Point Woods",2028,"28 Aug 2018",2023,122,103.9107426,1.4171146,"MOP",122,523159.806982215
"808","5-Room","PUNGGOL","M563","Punggol","Punggol Point Cove",2028,"28 Aug 2018",2023,234,103.9110284,1.4193302,"MOP",234,523159.806982215
"809","5-Room","PUNGGOL","M564","Punggol","Waterway Sunray",2022,"19 Jul 2014",2017,188,103.9188218,1.4006575,"MOP",188,523159.806982215
"810","5-Room","PUNGGOL","M565","Punggol","Waterway Terraces",2020,"30 Jun 2010",2015,306,103.9007848,1.4093609,"MOP",306,523159.806982215
"811","5-Room","PUNGGOL","M566","Punggol","Matilda Court",2022,"19 Jul 2014",2017,350,103.8909577,1.4023353,"MOP",350,523159.806982215
"812","5-Room","PUNGGOL","M567","Punggol","Punggol Bayview",2023,"22 Jan 2014",2018,380,103.896661,1.4100354,"MOP",380,523159.806982215
"813","5-Room","PUNGGOL","M568","Punggol","Matilda Portico",2021,"21 Mar 2013",2016,219,103.8956448,1.4028181,"MOP",219,523159.806982215
"814","5-Room","PUNGGOL","M569","Punggol","Waterway Ridges",2020,"24 Nov 2011",2015,246,103.9132209,1.4059009,"MOP",246,523159.806982215
"815","5-Room","PUNGGOL","M570","Punggol","Northshore Residences II",2025,"27 May 2015",2020,136,103.9016318,1.4162076,"MOP",136,523159.806982215
"816","5-Room","PUNGGOL","M571","Punggol","Waterway SunDew",2021,"30 May 2012",2016,262,103.9182035,1.4020224,"MOP",262,523159.806982215
"817","5-Room","PUNGGOL","M572","Punggol","Waterway Sunrise I",2026,"22 Nov 2016",2021,138,103.9199535,1.399918,"MOP",138,523159.806982215
"822","5-Room","SEMBAWANG","M573","Sembawang","EastWave @ Canberra",2022,"30 May 2013",2017,335,103.8313172,1.4455753,"MOP",335,462728.184351793
"823","5-Room","SEMBAWANG","M574","Sembawang","EastLawn @ Canberra",2022,"26 Nov 2013",2017,174,103.8319959,1.4482245,"MOP",174,462728.184351793
"824","5-Room","SEMBAWANG","M575","Sembawang","EastGlen @ Canberra",2025,"13 Nov 2018",2020,96,103.8299002,1.4482246,"MOP",96,462728.184351793
"826","5-Room","SEMBAWANG","M576","Sembawang","EastBank @ Canberra",2021,"30 May 2013",2016,179,103.8336057,1.4472603,"MOP",179,462728.184351793
"829","5-Room","SEMBAWANG","M577","Sembawang","EastDelta @ Canberra",2024,"17 Aug 2016",2019,266,103.8349355,1.4452428,"MOP",266,462728.184351793
"830","5-Room","SEMBAWANG","M578","Sembawang","Canberra Vista",2029,"11 Feb 2020",2024,221,103.8293357,1.4399446,"MOP",221,462728.184351793
"831","5-Room","SEMBAWANG","M579","Sembawang","EastCreek @ Canberra",2024,"24 May 2016",2019,176,103.8304504,1.451342,"MOP",176,462728.184351793
"832","5-Room","SEMBAWANG","M580","Sembawang","EastCrown @ Canberra",2022,"26 Mar 2014",2017,274,103.8318826,1.444703,"MOP",274,462728.184351793
"834","5-Room","SENGKANG","M581","Sengkang","Compassvale Boardwalk",2020,"30 May 2012",2015,222,103.8959766,1.3965841,"MOP",222,499126.983522162
"835","5-Room","SENGKANG","M582","Sengkang","Fernvale Lea",2020,"12 Jan 2012",2015,350,103.8780162,1.3959613,"MOP",350,499126.983522162
"836","5-Room","SENGKANG","M583","Sengkang","Rivervale Shores",2027,"01 Aug 2017",2022,574,103.9098991,1.38712,"MOP",574,499126.983522162
"837","5-Room","SENGKANG","M584","Sengkang","Fernvale Glades",2026,"14 Nov 2017",2021,221,103.8707038,1.3949256,"MOP",221,499126.983522162
"838","5-Room","SENGKANG","M585","Sengkang","Fernvale Vines",2028,"12 Feb 2019",2023,148,103.8766905,1.3983676,"MOP",148,499126.983522162
"839","5-Room","SENGKANG","M586","Sengkang","Fernvale Dew",2027,"22 May 2018",2022,90,103.8701991,1.3898356,"MOP",90,499126.983522162
"840","5-Room","SENGKANG","M587","Sengkang","Compassvale Cape",2021,"21 Mar 2013",2016,440,103.8958944,1.3983812,"MOP",440,499126.983522162
"842","5-Room","SENGKANG","M588","Sengkang","Anchorvale Parkview",2022,"26 Mar 2014",2017,165,103.8896595,1.399153,"MOP",165,499126.983522162
"843","5-Room","SENGKANG","M589","Sengkang","Fernvale Woods",2024,"17 Nov 2015",2019,192,103.8709559,1.3913936,"MOP",192,499126.983522162
"844","5-Room","SENGKANG","M590","Sengkang","Fernvale Rivergrove",2020,"22 Sep 2011",2015,252,103.8805131,1.3966499,"MOP",252,499126.983522162
"846","5-Room","SENGKANG","M591","Sengkang","Rivervale Delta",2021,"21 Nov 2012",2016,357,103.9087122,1.3899685,"MOP",357,499126.983522162
"847","5-Room","SENGKANG","M592","Sengkang","Fernvale Acres",2026,"13 Nov 2018",2021,132,103.8713274,1.389063,"MOP",132,499126.983522162
"848","5-Room","SENGKANG","M593","Sengkang","Compassvale Mast",2021,"21 Nov 2012",2016,359,103.8941708,1.3904738,"MOP",359,499126.983522162
"849","5-Room","SENGKANG","M594","Sengkang","Compassvale Helm",2021,"21 Mar 2013",2016,207,103.8908012,1.3819117,"MOP",207,499126.983522162
"850","5-Room","SENGKANG","M595","Sengkang","Anchorvale Plains",2025,"24 Feb 2016",2020,117,103.8851063,1.3929584,"MOP",117,499126.983522162
"852","5-Room","TAMPINES","M596","Tampines","Tampines GreenBloom",2025,"14 Feb 2017",2020,111,103.9300129,1.3526458,"MOP",111,541567.683181004
"853","5-Room","TAMPINES","M597","Tampines","Tampines GreenSpring",2028,"12 Nov 2019",2023,193,103.9405828,1.3546125,"MOP",193,541567.683181004
"854","5-Room","TAMPINES","M598","Tampines","Tampines GreenWeave",2024,"27 May 2015",2019,391,103.9406903,1.3534975,"MOP",391,541567.683181004
"855","5-Room","TAMPINES","M599","Tampines","Tampines GreenFoliage",2026,"06 Feb 2018",2021,232,103.943079,1.365855,"MOP",232,541567.683181004
"856","5-Room","TAMPINES","M600","Tampines","Tampines GreenGlen",2028,"11 Sep 2019",2023,319,103.9483686,1.3554734,"MOP",319,541567.683181004
"857","5-Room","TAMPINES","M601","Tampines","Tampines GreenGlade",2028,"12 Aug 2020",2023,175,103.9346015,1.3670023,"MOP",175,541567.683181004
"858","5-Room","TAMPINES","M602","Tampines","Tampines GreenVerge",2026,"17 Aug 2016",2021,612,103.940028,1.3618271,"MOP",612,541567.683181004
"859","5-Room","TAMPINES","M603","Tampines","Tampines GreenCrest",2028,"12 Aug 2020",2023,112,103.9406903,1.3534975,"MOP",112,541567.683181004
"860","5-Room","TAMPINES","M604","Tampines","Tampines Greenlace",2021,"27 Sep 2012",2016,165,103.9313057,1.3567879,"MOP",165,541567.683181004
"861","5-Room","TAMPINES","M605","Tampines","Tampines GreenView",2024,"17 Aug 2016",2019,207,103.9346505,1.3653478,"MOP",207,541567.683181004
"862","5-Room","TAMPINES","M606","Tampines","Tampines GreenDew",2026,"06 Feb 2018",2021,308,103.9393898,1.3672436,"MOP",308,541567.683181004
"863","5-Room","TAMPINES","M607","Tampines","Tampines GreenOpal",2030,"12 Aug 2020",2025,430,103.9406903,1.3534975,"MOP",430,541567.683181004
"864","5-Room","TAMPINES","M608","Tampines","Tampines GreenCourt",2027,"14 Nov 2017",2022,586,103.9418589,1.363855,"MOP",586,541567.683181004
"865","5-Room","TAMPINES","M609","Tampines","Tampines GreenRidges",2024,"25 Nov 2014",2019,246,103.9370231,1.3605525,"MOP",246,541567.683181004
"866","5-Room","TAMPINES","M610","Tampines","Tampines GreenGem",2028,"13 Nov 2018",2023,330,103.9356845,1.3435212,"MOP",330,541567.683181004
"867","5-Room","TAMPINES","M611","Tampines","Tampines GreenFlora",2025,"14 Feb 2017",2020,125,103.930882,1.3542245,"MOP",125,541567.683181004
"869","5-Room","TAMPINES","M612","Tampines","Tampines GreenVines",2027,"22 May 2018",2022,457,103.9447821,1.3655031,"MOP",457,541567.683181004
"870","5-Room","TAMPINES","M613","Tampines","Tampines GreenEdge",2022,"25 Nov 2014",2017,99,103.9554444,1.3631229,"MOP",99,541567.683181004
"871","5-Room","TENGAH","M614","Tengah","Garden Vines @ Tengah",2028,"12 Nov 2019",2023,191,103.7317692,1.3611945,"MOP",191,671111.58275
"872","5-Room","TENGAH","M615","Tengah","Plantation Grove",2028,"13 Nov 2018",2023,395,103.7308145,1.3555189,"MOP",395,671111.58275
"873","5-Room","TENGAH","M616","Tengah","Plantation Acres",2027,"22 May 2019",2022,259,103.7308145,1.3555189,"MOP",259,671111.58275
"874","5-Room","TENGAH","M617","Tengah","Plantation Grange",2027,"12 Nov 2019",2022,258,103.7308252,1.3554331,"MOP",258,671111.58275
"875","5-Room","TENGAH","M618","Tengah","Garden Vale @ Tengah",2028,"22 May 2019",2023,212,103.7333249,1.3598323,"MOP",212,671111.58275
"876","5-Room","TENGAH","M619","Tengah","Parc Residences @ Tengah",2030,"12 Aug 2020",2025,184,103.7308145,1.3555189,"MOP",184,671111.58275
"877","5-Room","TENGAH","M620","Tengah","Plantation Village",2028,"12 Nov 2019",2023,398,103.7340544,1.3585237,"MOP",398,671111.58275
"885","5-Room","WOODLANDS","M621","Woodlands","Marsiling Greenview",2023,"22 May 2014",2018,382,103.7765789,1.4351462,"MOP",382,424636.639878843
"886","5-Room","WOODLANDS","M622","Woodlands","Admiralty Grove",2022,"26 Nov 2013",2017,168,103.8037955,1.4379932,"MOP",168,424636.639878843
"888","5-Room","WOODLANDS","M623","Woodlands","Admiralty Flora",2022,"22 May 2014",2017,181,103.8060758,1.4401822,"MOP",181,424636.639878843
"889","5-Room","WOODLANDS","M624","Woodlands","TreeTrail @ Woodlands",2021,"27 Sep 2012",2016,234,103.793133,1.437782,"MOP",234,424636.639878843
"890","5-Room","WOODLANDS","M625","Woodlands","Champions Green",2028,"22 May 2019",2023,135,103.790016,1.4272453,"MOP",135,424636.639878843
"895","5-Room","WOODLANDS","M626","Woodlands","UrbanVille @ Woodlands",2031,"12 Aug 2020",2026,438,103.7889597,1.4381922,"MOP",438,424636.639878843
"896","5-Room","WOODLANDS","M627","Woodlands","Marsiling Grove",2027,"18 May 2017",2022,187,103.7745925,1.4367209,"MOP",187,424636.639878843
"897","5-Room","WOODLANDS","M628","Woodlands","Woodlands Pasture I & II",2022,"30 May 2013",2017,353,103.8047285,1.4465516,"MOP",353,424636.639878843
"899","5-Room","WOODLANDS","M629","Woodlands","Woodlands Glade",2026,"06 Feb 2018",2021,90,103.8023954,1.4495841,"MOP",90,424636.639878843
"900","5-Room","YISHUN","M630","Yishun","Palm Breeze @ Yishun",2021,"26 Sep 2013",2016,176,103.8400963,1.4165297,"MOP",176,472555.606258971
"902","5-Room","YISHUN","M631","Yishun","Angsana Breeze @ Yishun",2022,"30 Jul 2013",2017,252,103.8393106,1.4142876,"MOP",252,472555.606258971
"903","5-Room","YISHUN","M632","Yishun","Park Grove @ Yishun",2022,"19 Jul 2014",2017,216,103.8434644,1.4215242,"MOP",216,472555.606258971
"905","5-Room","YISHUN","M633","Yishun","Forest Spring @ Yishun",2026,"18 May 2017",2021,100,103.8524002,1.4258525,"MOP",100,472555.606258971
"908","5-Room","YISHUN","M634","Yishun","Fern Grove @ Yishun",2022,"26 Mar 2014",2017,312,103.8420054,1.4205609,"MOP",312,472555.606258971
"909","5-Room","YISHUN","M635","Yishun","Melody Spring @ Yishun 2",2025,"13 Nov 2018",2020,108,103.8540588,1.4266597,"MOP",108,472555.606258971
"910","5-Room","YISHUN","M636","Yishun","Oleander Breeze @ Yishun",2021,"29 Jan 2013",2016,180,103.841643,1.4155753,"MOP",180,472555.606258971
"912","5-Room","YISHUN","M637","Yishun","Acacia Breeze",2020,"24 Nov 2011",2015,308,103.843994,1.4193772,"MOP",308,472555.606258971
"913","5-Room","YISHUN","M638","Yishun","Melody Spring @ Yishun 1",2026,"28 Aug 2018",2021,36,103.8540588,1.4266597,"MOP",36,472555.606258971
"914","5-Room","YISHUN","M639","Yishun","Casa Spring @ Yishun",2026,"22 May 2018",2021,180,103.8501402,1.4257168,"MOP",180,472555.606258971
"915","5-Room","YISHUN","M640","Yishun","Saraca Breeze @ Yishun",2022,"26 Sep 2013",2017,84,103.8443098,1.4158811,"MOP",84,472555.606258971
"916","5-Room","YISHUN","M641","Yishun","Yishun Glen",2027,"28 Aug 2018",2022,308,103.846063,1.4301457,"MOP",308,472555.606258971
"918","EXECUTIVE","ANG MO KIO","M642","Ang Mo Kio","Ang Mo Kio Court",2025,"24 May 2016",2020,52,103.840314,1.3682685,"MOP",52,743075.265836585
"929","EXECUTIVE","BIDADARI","M643","Bidadari","Alkaff Oasis",2025,"24 Feb 2016",2020,71,103.8727282,1.3346028,"MOP",71,NA
"934","EXECUTIVE","BIDADARI","M644","Bidadari","Woodleigh Hillside",2027,"18 May 2017",2022,48,103.875035,1.3425497,"MOP",48,NA
"938","EXECUTIVE","BUKIT BATOK","M645","Bukit Batok","West Rock @ Bukit Batok",2023,"11 Feb 2015",2018,58,103.7402898,1.355182,"MOP",58,633337.332873704
"954","EXECUTIVE","BUKIT PANJANG","M646","Bukit Panjang","Senja Ridges",2026,"24 May 2016",2021,62,103.761881,1.380845,"MOP",62,598132.446857441
"972","EXECUTIVE","CLEMENTI","M647","Clementi","Clementi NorthArc",2027,"14 Feb 2017",2022,98,103.7621079,1.323519,"MOP",98,691167.905675758
"987","EXECUTIVE","HOUGANG","M648","Hougang","Hougang RiverCourt",2025,"17 Nov 2015",2020,47,103.8946885,1.3626123,"MOP",47,639421.555197072
"990","EXECUTIVE","HOUGANG","M649","Hougang","Buangkok Edgeview",2022,"24 Sep 2014",2017,56,103.8811592,1.3847847,"MOP",56,639421.555197072
"999","EXECUTIVE","JURONG WEST","M650","Jurong West","Boon Lay Glade",2027,"12 Feb 2019",2022,27,103.6936205,1.3354284,"MOP",27,581068.631915311
"1001","EXECUTIVE","JURONG WEST","M651","Jurong West","Boon Lay View",2022,"26 Nov 2013",2017,112,103.7109866,1.3504655,"MOP",112,581068.631915311
"1014","EXECUTIVE","PUNGGOL","M652","Punggol","Waterfront I @ Northshore",2025,"17 Nov 2015",2020,49,103.9022587,1.4160392,"MOP",49,546735.410245378
"1020","EXECUTIVE","PUNGGOL","M653","Punggol","Waterfront II @ Northshore",2025,"17 Nov 2015",2020,48,103.9017599,1.4184607,"MOP",48,546735.410245378
"1022","EXECUTIVE","PUNGGOL","M654","Punggol","Punggol Bayview",2023,"22 Jan 2014",2018,52,103.896661,1.4100354,"MOP",52,546735.410245378
"1044","EXECUTIVE","PUNGGOL","M655","Punggol","Waterway Sunrise I",2026,"22 Nov 2016",2021,65,103.9199535,1.399918,"MOP",65,546735.410245378
"1045","EXECUTIVE","PUNGGOL","M656","Punggol","Punggol Point Cove",2028,"28 Aug 2018",2023,30,103.9110284,1.4193302,"MOP",30,546735.410245378
"1060","EXECUTIVE","SEMBAWANG","M657","Sembawang","Canberra Vista",2029,"11 Feb 2020",2024,45,103.8293357,1.4399446,"MOP",45,548176.317165421
"1066","EXECUTIVE","SENGKANG","M658","Sengkang","Anchorvale Parkview",2022,"26 Mar 2014",2017,70,103.8896595,1.399153,"MOP",70,560358.585102151
"1075","EXECUTIVE","SENGKANG","M659","Sengkang","Fernvale Glades",2026,"14 Nov 2017",2021,52,103.8707038,1.3949256,"MOP",52,560358.585102151
"1076","EXECUTIVE","SENGKANG","M660","Sengkang","Fernvale Vines",2028,"12 Feb 2019",2023,40,103.8766905,1.3983676,"MOP",40,560358.585102151
"1083","EXECUTIVE","TAMPINES","M661","Tampines","Tampines GreenRidges",2024,"25 Nov 2014",2019,56,103.9370231,1.3605525,"MOP",56,660402.669709009
"1084","EXECUTIVE","TAMPINES","M662","Tampines","Tampines GreenBloom",2025,"14 Feb 2017",2020,55,103.9300129,1.3526458,"MOP",55,660402.669709009
"1085","EXECUTIVE","TAMPINES","M663","Tampines","Tampines GreenVerge",2026,"17 Aug 2016",2021,60,103.940028,1.3618271,"MOP",60,660402.669709009
"1095","EXECUTIVE","TAMPINES","M664","Tampines","Tampines GreenFlora",2025,"14 Feb 2017",2020,41,103.930882,1.3542245,"MOP",41,660402.669709009
"1097","EXECUTIVE","TAMPINES","M665","Tampines","Tampines GreenWeave",2024,"27 May 2015",2019,56,103.9406903,1.3534975,"MOP",56,660402.669709009
"1102","EXECUTIVE","TENGAH","M666","Tengah","Plantation Grove",2028,"13 Nov 2018",2023,48,103.7308145,1.3555189,"MOP",48,NA
"1103","EXECUTIVE","TENGAH","M667","Tengah","Plantation Grange",2027,"12 Nov 2019",2022,39,103.7308252,1.3554331,"MOP",39,NA
"1114","EXECUTIVE","WOODLANDS","M668","Woodlands","Marsiling Greenview",2023,"22 May 2014",2018,50,103.7765789,1.4351462,"MOP",50,573794.518946142
"1128","EXECUTIVE","WOODLANDS","M669","Woodlands","Marsiling Grove",2027,"18 May 2017",2022,58,103.7745925,1.4367209,"MOP",58,573794.518946142
"1131","EXECUTIVE","YISHUN","M670","Yishun","Park Grove @ Yishun",2022,"19 Jul 2014",2017,48,103.8434644,1.4215242,"MOP",48,537365.417799644
"1134","EXECUTIVE","YISHUN","M671","Yishun","Saraca Breeze @ Yishun",2022,"26 Sep 2013",2017,84,103.8443098,1.4158811,"MOP",84,537365.417799644
"1137","EXECUTIVE","YISHUN","M672","Yishun","Casa Spring @ Yishun",2026,"22 May 2018",2021,48,103.8501402,1.4257168,"MOP",48,537365.417799644
"1146","Studio","ANG MO KIO","M673","Ang Mo Kio","Cheng San Court",2023,"27 Sep 2012",2018,171,103.8536139,1.3712675,"MOP",171,NA
"1153","Studio","BEDOK","M674","Bedok","Fengshan GreenVille",2023,"21 Nov 2012",2018,198,103.9413278,1.3316628,"MOP",198,NA
"1170","Studio","BUKIT BATOK","M675","Bukit Batok","Bukit Gombak Vista",2022,"22 Jan 2014",2017,156,103.7502324,1.3594135,"MOP",156,NA
"1180","Studio","BUKIT MERAH","M676","Bukit Merah","Depot Heights",2021,"31 Jul 2012",2016,114,103.8092881,1.2810873,"MOP",114,NA
"1182","Studio","BUKIT MERAH","M677","Bukit Merah","Telok Blangah ParcView",2022,"30 Jul 2013",2017,172,103.8075668,1.2762338,"MOP",172,NA
"1187","Studio","BUKIT TIMAH","M678","Bukit Timah","Golden Kismis",2020,"28 Mar 2012",2015,132,103.7719385,1.3383494,"MOP",132,NA
"1188","Studio","CHOA CHU KANG","M679","Choa Chu Kang","Sunshine Gardens",2020,"12 Jan 2012",2015,104,103.7402665,1.3763898,"MOP",104,NA
"1204","Studio","GEYLANG","M680","Geylang","Greentops @ Sims Place",2020,"31 Jul 2012",2015,196,103.8796619,1.3165145,"MOP",196,NA
"1205","Studio","GEYLANG","M681","Geylang","MacPherson Spring",2024,"11 Feb 2015",2019,168,103.8894844,1.3241946,"MOP",168,NA
"1212","Studio","HOUGANG","M682","Hougang","Dew Court",2020,"24 Nov 2011",2015,198,103.8935746,1.3635188,"MOP",198,NA
"1214","Studio","HOUGANG","M683","Hougang","Golden Mint",2021,"30 May 2013",2016,292,103.887186,1.3795496,"MOP",292,NA
"1227","Studio","JURONG WEST","M684","Jurong West","Golden Lavender",2022,"22 Jan 2014",2017,149,103.6964519,1.3422307,"MOP",149,NA
"1233","Studio","KALLANG/WHAMPOA","M685","Kallang/Whampoa","McNair Towers",2021,"30 May 2012",2016,270,103.8599708,1.3211714,"MOP",270,NA
"1235","Studio","KALLANG/WHAMPOA","M686","Kallang/Whampoa","Whampoa Dew",2022,"29 Jan 2013",2017,156,103.8555599,1.3250457,"MOP",156,NA
"1236","Studio","KALLANG/WHAMPOA","M687","Kallang/Whampoa","St. George’s Towers",2024,"24 Sep 2014",2019,151,103.862117,1.3222715,"MOP",151,NA
"1246","Studio","PUNGGOL","M688","Punggol","Waterway Brooks",2020,"22 Sep 2011",2015,156,103.909202,1.4059811,"MOP",156,NA
"1276","Studio","QUEENSTOWN","M689","Queenstown","Ghim Moh Edge",2022,"21 Nov 2012",2017,222,103.7837286,1.3087489,"MOP",222,NA
"1291","Studio","SENGKANG","M690","Sengkang","Fernvale Rivergrove",2020,"22 Sep 2011",2015,100,103.8805131,1.3966499,"MOP",100,NA
"1296","Studio","SENGKANG","M691","Sengkang","Compassvale Cape",2021,"21 Mar 2013",2016,168,103.8958944,1.3983812,"MOP",168,NA
"1297","Studio","SENGKANG","M692","Sengkang","Compassvale Helm",2021,"21 Mar 2013",2016,138,103.8908012,1.3819117,"MOP",138,NA
"1309","Studio","SERANGOON","M693","Serangoon","Golden Ginger",2022,"22 Jan 2014",2017,150,103.8735357,1.3667637,"MOP",150,NA
"1314","Studio","TAMPINES","M694","Tampines","Tampines GreenWeave",2024,"27 May 2015",2019,224,103.9406903,1.3534975,"MOP",224,NA
"1336","Studio","TOA PAYOH","M695","Toa Payoh","Golden Clover",2020,"28 Mar 2012",2015,188,103.8589847,1.3313306,"MOP",188,NA
"1338","Studio","TOA PAYOH","M696","Toa Payoh","Toa Payoh Crest",2022,"21 Nov 2012",2017,232,103.8432735,1.338039,"MOP",232,NA
"1343","Studio","WOODLANDS","M697","Woodlands","Woodlands Peak",2020,"27 May 2011",2015,127,103.7750909,1.431815,"MOP",127,NA
"1350","Studio","WOODLANDS","M698","Woodlands","Kampung Admiralty",2022,"19 Jul 2014",2017,104,103.8007771,1.439603,"MOP",104,NA
"1355","Studio","WOODLANDS","M699","Woodlands","Golden Saffron",2020,"27 Sep 2012",2015,128,103.797924,1.4448482,"MOP",128,NA
"1362","Studio","YISHUN","M700","Yishun","Khatib Court",2022,"26 Sep 2013",2017,143,103.8328343,1.4182878,"MOP",143,NA
