"","X","Address","Room","Model","Year","Area","Price","Type","lon","lat","address"
"1",1,"  Blk 310B Punggol Walk Singapore","5-Room","Improved"," Built-2015","112 sqm / $522 psf(Built)","$630,000","Resale",103.9004061,1.4094207,"310b punggol walk, singapore 822310"
"2",NA,"  Blk 988C Jurong West Street 93 Singapore","5-Room","Premium Apartment"," Built-2008","110 sqm / $464 psf(Built)","$550,000","Resale",103.6958416,1.3358952,"988c jurong west street 93, singapore 643988"
"3",3,"  Blk 127D Kim Tian Road Singapore","4-Room","Model A"," Built-2013","88 sqm / $850 psf(Built)","$805,000","Resale",103.8298718,1.2811233,"127d kim tian rd, singapore 164127"
"4",4,"  Blk 365C Upper Serangoon Road Singapore","4-Room","Model A"," Built-2016","92 sqm / $606 psf(Built)","$600,000","Resale",103.8973229,1.3702837,"365 upper serangoon rd, singapore 530336"
"5",5,"  Blk 122A Edgedale Plains Singapore","4-Room","Model A"," Built-2016","92 sqm / $484 psf(Built)","$480,000","Resale",103.9093692,1.3936471,"122a edgedale plains, singapore 821122"
"6",6,"  Blk 753 Woodlands Circle Singapore","4-Room","Model A"," Built-1997","103 sqm / $347 psf(Built)","$385,000","Resale",103.7945038,1.4457669,"753 woodlands cir, block 753, singapore 730753"
"7",7,"  Blk 86 Dawson Road Singapore","4-Room","Premium Apartment"," Built-2016","87 sqm / $849 psf(Built)","$795,000","Resale",103.8103377,1.2956741,"86 dawson rd, singapore 141086"
"8",8,"  Blk 311A Trivelis Singapore","3-Room","Improved"," Built-2014","60 sqm / $897 psf(Built)","$580,000","Resale",103.7655694,1.3191667,"311a clementi ave 4, singapore 121311"
"9",9,"  Blk 316D Punggol Way Singapore","5-Room","Improved"," Built-2015","113 sqm / $616 psf(Built)","$750,000","Resale",103.8969811,1.4081041,"316 punggol way, singapore 821316"
"10",10,"  Blk 135 Bishan Street 12 Singapore","5-Room","Improved"," Built-1987","121 sqm / $491 psf(Built)","$640,000","Resale",103.851245,1.3445821,"135 bishan street 12, block 135, singapore 570135"
"11",11,"  Blk 10A Tiong Bahru View Singapore","4-Room","Model A"," Built-2016","92 sqm / $959 psf(Built)","$950,000","Resale",103.8286125,1.2869556,"9a boon tiong rd, singapore 162009"
"12",12,"  Blk 664D Jurong West Street 64 Singapore","4-Room","Model A"," Built-2000","90 sqm / $438 psf(Built)","$425,000","Resale",103.702718,1.3388802,"664d jurong west street 64, block 664d, singapore 644664"
"13",13,"  Blk 411A Fernvale Road Singapore","4-Room","Model A"," Built-2012","96 sqm / $561 psf(Built)","$580,000","Resale",103.8771101,1.390323,"411a fernvale rd, singapore 791411"
"14",14,"  Blk 107 Bishan Street 12 Singapore","4-Room","Model A"," Built-1985","104 sqm / $580 psf(Built)","$650,000","Resale",103.8480291,1.3463946,"107 bishan street 12, block 107, singapore 570107"
"15",15,"  Blk 807C Choa Chu Kang Avenue 1 Singapore","4-Room","Model A"," Built-2015","92 sqm / $493 psf(Built)","$488,888","Resale",103.7455959,1.376412,"807c choa chu kang ave 1, singapore 683807"
"16",16,"  Blk 588C Park Central @ Amk Singapore","5-Room","Built-2011",NA,"120 sqm / $696 psf(Built)","$900,000","Resale",103.8526491,1.3720758,"588a ang mo kio street 52, singapore 561588"
"17",17,"  Blk 807A Chai Chee Road Singapore","3-Room","Model A"," Built-2016","68 sqm / $710 psf(Built)","$520,000","Resale",103.9232433,1.3272024,"807a chai chee rd, singapore 461808"
"18",18,"  Blk 121 Bedok North Road Singapore","4-Room","New Generation"," Built-1978","92 sqm / $434 psf(Built)","$430,000","Resale",103.9387352,1.3296222,"121 bedok north rd, block 121, singapore 460121"
"19",19,"  Blk 14A Telok Blangah Crescent Singapore","4-Room","Model A"," Built-1999","100 sqm / $548 psf(Built)","$590,000","Resale",103.8207883,1.2778656,"14a telok blangah cres, block 14a, singapore 091014"
"20",20,"  Blk 710 Ang Mo Kio Avenue 8 Singapore","5-Room","Improved"," Built-1980","117 sqm / $578 psf(Built)","$728,000","Resale",103.8482103,1.3710763,"710 ang mo kio ave 8, singapore 560710"
"21",21,"  Blk 495B Tampines Street 43 Singapore","3-Room","Built-1994",NA,"147 sqm / $403 psf(Built)","$638,888","Resale",103.9513128,1.3628324,"495b tampines street 43, block 495b, singapore 521495"
"22",22,"  Blk 88 Redhill Close Singapore","4-Room","Model A"," Built-1995","111 sqm / $702 psf(Built)","$838,888","Resale",103.8185242,1.2859206,"88 redhill cl, block 88, singapore 150088"
"23",23,"  Blk 86 Dawson Road Singapore","5-Room","Improved"," Built-2016","108 sqm / $838 psf(Built)","$975,000","Resale",103.8103377,1.2956741,"86 dawson rd, singapore 141086"
"24",24,"  Blk 520A Centrale 8 At Tampines Singapore","4-Room","Dbss"," Built-2014","84 sqm / $794 psf(Built)","$718,000","Resale",103.9400264,1.3569026,"520a tampines central 8, singapore 521520"
"25",25,"  Blk 128 Bedok Reservoir Road Singapore","5-Room","Improved"," Built-1986","122 sqm / $600 psf(Built)","$788,000","Resale",103.9114536,1.3334379,"128 bedok reservoir rd, block 128, singapore 470128"
"26",26,"  Blk 289D Punggol Place Singapore","5-Room","Others"," Built-2013","115 sqm / $525 psf(Built)","$650,000","Resale",103.903694,1.401994,"289d punggol pl, singapore 824289"
"27",27,"  Blk 672B Klang Lane Singapore","4-Room","Model A"," Built-2002","85 sqm / $568 psf(Built)","$520,000","Resale",103.8529137,1.3089683,"672b klang ln, singapore 212672"
"28",28,"  Blk 165A Punggol Central Singapore","4-Room","Premium Apartment"," Built-2004","95 sqm / $418 psf(Built)","$428,000","Resale",103.914794,1.3952225,"165a punggol central, singapore 821165"
"29",29,"  Blk 673B Edgefield Plains Singapore","4-Room","Model A"," Built-2015","90 sqm / $490 psf(Built)","$475,000","Resale",103.9110911,1.4069768,"673b edgefield plains, singapore 822673"
"30",30,"  Blk 213C Punggol Walk Singapore","4-Room","Model A"," Built-2015","93 sqm / $454 psf(Built)","$455,000","Resale",103.8987968,1.4008405,"213c punggol walk, singapore 828792"
"31",31,"  Blk 208A Punggol Place Singapore","3-Room","New Generation"," Built-2014","67 sqm / $527 psf(Built)","$380,000","Resale",103.9012184,1.4008219,"208a punggol pl, singapore 821208"
"32",32,"  Blk 681 Race Course Road Singapore","4-Room","Model A"," Built-1986","103 sqm / $532 psf(Built)","$590,888","Resale",103.855277,1.3140759,"681 race course rd, block 681, singapore 210681"
"33",33,"  Blk 113 Bishan Street 12 Singapore","4-Room","Simplified"," Built-1986","84 sqm / $553 psf(Built)","$500,000","Resale",103.8485727,1.3472701,"113 bishan street 12, block 113, singapore 570113"
"34",34,"  Blk 155 Lorong 1 Toa Payoh Singapore","4-Room","Model A"," Built-1999","101 sqm / $651 psf(Built)","$708,000","Resale",103.84558,1.3327228,"155 lor 1 toa payoh, block 155, singapore 310155"
"35",35,"  Blk 52 Telok Blangah Drive Singapore","5-Room","Improved"," Built-1978","118 sqm / $511 psf(Built)","$650,000","Resale",103.8111707,1.2738102,"52 telok blangah dr, block 52, singapore 100052"
"36",36,"  Blk 70 Lorong 4 Toa Payoh Singapore","3-Room","Improved"," Built-1969","64 sqm / $403 psf(Built)","$278,000","Resale",103.8522881,1.3346601,"70 lor 4 toa payoh, block 70, singapore 310070"
"37",37,"  Blk 332B Anchorvale Link Singapore","5-Room","Improved"," Built-2015","112 sqm / $538 psf(Built)","$650,000","Resale",103.8914065,1.3951513,"332c anchorvale link, blk 332b, singapore 543332"
"38",38,"  Blk 344 Ang Mo Kio Avenue 3 Singapore","4-Room","New Generation"," Built-1978","98 sqm / $454 psf(Built)","$480,000","Resale",103.8492068,1.3679934,"344 ang mo kio ave 3, block 344, singapore 560344"
"39",39,"  Blk 310C Punggol Walk Singapore","5-Room","Premium Apartment"," Built-2016","112 sqm / $526 psf(Built)","$635,000","Resale",103.8999638,1.4096731,"310 c punggol walk, singapore 822310"
"40",40,"  Blk 807A Chai Chee Road Singapore","3-Room","Model A"," Built-2016","68 sqm / $710 psf(Built)","$520,000","Resale",103.9232433,1.3272024,"807a chai chee rd, singapore 461808"
"41",41,"  Blk 479 Sembawang Drive Singapore","4-Room","Model A"," Built-2000","88 sqm / $411 psf(Built)","$390,000","Resale",103.815694,1.4526098,"479 sembawang dr, block 479, singapore 750479"
"42",42,"  Blk 7 Everton Park Singapore","3-Room","Improved"," Built-1980","78 sqm / $565 psf(Built)","$475,000","Resale",103.8392427,1.2770881,"7 everton park, block 7, singapore 080007"
"43",43,"  Blk 311C Trivelis Singapore","4-Room","New Generation"," Built-2014","80 sqm / $915 psf(Built)","$788,000","Resale",103.7655694,1.3191667,"311a clementi ave 4, singapore 121311"
"44",44,"  Blk 249 Tampines Street 21 Singapore","4-Room","Model A"," Built-1984","103 sqm / $458 psf(Built)","$508,000","Resale",103.9484346,1.3518862,"249 tampines street 21, block 249, singapore 520249"
"45",45,"  Blk 530 Bedok North Street 3 Singapore","3-Room","New Generation"," Built-1979","68 sqm / $382 psf(Built)","$280,000","Resale",103.9269518,1.3337144,"530 bedok north street 3, block 530, singapore 460530"
"46",46,"  Blk 672A Klang Lane Singapore","5-Room","Improved"," Built-2002","105 sqm / $495 psf(Built)","$560,000","Resale",103.8524905,1.3085134,"672a klang ln, singapore 211672"
"47",47,"  Blk 55 Chai Chee Drive Singapore","3-Room","Model A"," Built-1984","76 sqm / $366 psf(Built)","$300,000","Resale",103.9193384,1.3271729,"55 chai chee dr, block 55, singapore 460055"
"48",48,"  Blk 121 Bedok North Road Singapore","4-Room","New Generation"," Built-1978","92 sqm / $434 psf(Built)","$430,000","Resale",103.9387352,1.3296222,"121 bedok north rd, block 121, singapore 460121"
"49",49,"  Blk 268D Punggol Field Singapore","5-Room","Improved"," Built-2013","112 sqm / $663 psf(Built)","$800,000","Resale",103.8982373,1.4034272,"268d punggol field, singapore 824268"
"50",50,"  Blk 666B Punggol Drive Singapore","5-Room","Premium Apartment"," Built-2016","113 sqm / $542 psf(Built)","$660,000","Resale",103.9153018,1.4019207,"666b punggol dr, singapore 822666"
"51",51,"  Blk 515C The Premiere @ Tampines Singapore","5-Room","Model A"," Built-2009","109 sqm / $664 psf(Built)","$780,000","Resale",103.9388706,1.3566593,"515 tampines central 7, singapore 524515"
"52",52,"  Blk 6 Holland Close Singapore","3-Room","Improved"," Built-1974","65 sqm / $540 psf(Built)","$378,000","Resale",103.7954772,1.3071143,"6 holland cl, block 6, singapore 271006"
"53",53,"  Blk 673B Edgefield Plains Singapore","4-Room","Model A"," Built-2015","90 sqm / $490 psf(Built)","$475,000","Resale",103.9110911,1.4069768,"673b edgefield plains, singapore 822673"
"54",54,"  Blk 525C Pasir Ris Street 51 Singapore","4-Room","Improved"," Built-2015","93 sqm / $487 psf(Built)","$488,000","Resale",103.9474365,1.3701025,"525c pasir ris street 51, singapore 513525"
"55",55,"  Blk 155 Lorong 1 Toa Payoh Singapore","4-Room","Model A"," Built-1999","101 sqm / $651 psf(Built)","$708,000","Resale",103.84558,1.3327228,"155 lor 1 toa payoh, block 155, singapore 310155"
"56",56,"  Blk 89 Dawson Road Singapore","4-Room","Standard"," Built-2016","95 sqm / $928 psf(Built)","$950,000","Resale",103.8118373,1.2953964,"89 dawson rd, singapore 142089"
"57",57,"  Blk 311B Trivelis Singapore","4-Room","Dbss"," Built-2014","81 sqm / $860 psf(Built)","$750,000","Resale",103.7655694,1.3191667,"311a clementi ave 4, singapore 121311"
"58",58,"  Blk 213C Punggol Walk Singapore","5-Room","Improved"," Built-2015","113 sqm / $468 psf(Built)","$570,000","Resale",103.8987968,1.4008405,"213c punggol walk, singapore 828792"
"59",59,"  Blk 10A Tiong Bahru View Singapore","4-Room","Model A"," Built-2016","92 sqm / $994 psf(Built)","$985,000","Resale",103.8286125,1.2869556,"9a boon tiong rd, singapore 162009"
"60",60,"  Blk 2 Jalan Bukit Merah Singapore","3-Room","Improved"," Built-1975","63 sqm / $424 psf(Built)","$288,000","Resale",103.8068191,1.2866982,"2 jalan bukit merah, singapore 150002"
"61",61,"  Blk 220 Serangoon Avenue 4 Singapore","4-Room","New Generation"," Built-1984","93 sqm / $549 psf(Built)","$550,000","Resale",103.87222,1.3586973,"220 serangoon ave 4, block 220, singapore 550220"
"62",62,"  Blk 111A Depot Road Singapore","5-Room","Model A"," Built-2006","115 sqm / $614 psf(Built)","$760,000","Resale",103.8088168,1.2811278,"111a depot rd, block 111a, singapore 101111"
"63",63,"  Blk 28B Dover Crescent Singapore","4-Room","Model A"," Built-2012","88 sqm / $726 psf(Built)","$688,000","Resale",103.7819406,1.3053608,"28b dover cres, singapore 132028"
"64",64,"  Blk 17B Circuit Road Singapore","4-Room","Model A"," Built-2016","93 sqm / $779 psf(Built)","$780,000","Resale",103.8890392,1.3299833,"17b circuit rd, singapore 372017"
"65",65,"  Blk 289D Punggol Place Singapore","5-Room","Others"," Built-2013","115 sqm / $525 psf(Built)","$650,000","Resale",103.903694,1.401994,"289d punggol pl, singapore 824289"
"66",66,"  Blk 139 Potong Pasir Avenue 3 Singapore","3-Room","Model A"," Built-1984","74 sqm / $483 psf(Built)","$385,000","Resale",103.8661493,1.3332643,"139 potong pasir ave 3, block 139, singapore 350139"
"67",67,"  Blk 310C Punggol Walk Singapore","5-Room","Premium Apartment"," Built-2016","112 sqm / $526 psf(Built)","$635,000","Resale",103.8999638,1.4096731,"310 c punggol walk, singapore 822310"
"68",68,"  Blk 619A Punggol Drive Singapore","4-Room","Model A"," Built-2013","93 sqm / $498 psf(Built)","$499,000","Resale",103.9115057,1.4024529,"619a punggol dr, singapore 821619"
"69",69,"  Blk 202A Compassvale Drive Singapore","HDB Executive","Apartment"," Built-2001","130 sqm / $420 psf(Built)","$588,000","Resale",103.893254,1.38875,"202a compassvale dr, singapore 541202"
"70",70,"  Blk 70 Lorong 4 Toa Payoh Singapore","3-Room","Improved"," Built-1969","64 sqm / $403 psf(Built)","$278,000","Resale",103.8522881,1.3346601,"70 lor 4 toa payoh, block 70, singapore 310070"
"71",71,"  Blk 472A Fernvale Rivergrove Singapore","5-Room","Design & Built"," Built-2016","113 sqm / $475 psf(Built)","$578,000","Resale",103.8805131,1.3966499,"470b fernvale link, singapore 792470"
"72",72,"  Blk 131B Kim Tian Road Singapore","4-Room","Model A"," Built-2002","91 sqm / $702 psf(Built)","$688,000","Resale",103.8282723,1.2809123,"131b kim tian rd, singapore 162131"
"73",73,"  Blk 87 Dawson Road Singapore","3-Room","New Generation"," Built-2015","65 sqm / $954 psf(Built)","$668,000","Resale",103.8099048,1.2960052,"87 dawson rd, singapore 141087"
"74",74,"  Blk 515C The Premiere @ Tampines Singapore","5-Room","Improved"," Built-2008","109 sqm / $664 psf(Built)","$780,000","Resale",103.9388706,1.3566593,"515 tampines central 7, singapore 524515"
"75",75,"  Blk 88 Redhill Close Singapore","4-Room","Model A"," Built-1995","111 sqm / $702 psf(Built)","$838,888","Resale",103.8185242,1.2859206,"88 redhill cl, block 88, singapore 150088"
"76",76,"  Blk 611 Hougang Avenue 8 Singapore","4-Room","Simplified"," Built-1986","84 sqm / $420 psf(Built)","$380,000","Resale",103.8846305,1.3700555,"611 hougang ave 8, block 611, singapore 530611"
"77",77,"  Blk 428 Clementi Avenue 3 Singapore","3-Room","Standard"," Built-1978","66 sqm / $507 psf(Built)","$360,000","Resale",103.7631773,1.3125457,"428 clementi ave 3, block 428, singapore 120428"
"78",78,"  Blk 310C Punggol Walk Singapore","5-Room","Model A"," Built-2016","112 sqm / $538 psf(Built)","$650,000","Resale",103.8999638,1.4096731,"310 c punggol walk, singapore 822310"
"79",79,"  Blk 183C Boon Lay Avenue Singapore","4-Room","Model A"," Built-2015","92 sqm / $484 psf(Built)","$480,000","Resale",103.7092363,1.3485931,"183c boon lay ave, singapore 643183"
"80",80,"  Blk 495B Tampines Street 43 Singapore","3-Room","Built-1994",NA,"147 sqm / $403 psf(Built)","$638,888","Resale",103.9513128,1.3628324,"495b tampines street 43, block 495b, singapore 521495"
"81",81,"  Blk 117 Edgefield Plains Singapore","5-Room","Model A"," Built-2003","112 sqm / $402 psf(Built)","$485,000","Resale",103.9064393,1.3953168,"117 edgefield plains, singapore 820117"
"82",82,"  Blk 672A Klang Lane Singapore","5-Room","Improved"," Built-2002","105 sqm / $495 psf(Built)","$560,000","Resale",103.8524905,1.3085134,"672a klang ln, singapore 211672"
"83",83,"  Blk 87 Dawson Road Singapore","3-Room","New Generation"," Built-2015","65 sqm / $954 psf(Built)","$668,000","Resale",103.8099048,1.2960052,"87 dawson rd, singapore 141087"
"84",84,"  Blk 442C Fajar Road Singapore","4-Room","Model A"," Built-2015","93 sqm / $449 psf(Built)","$450,000","Resale",103.7709292,1.381497,"442c fajar rd, singapore 674442"
"85",85,"  Blk 121 Bedok North Road Singapore","4-Room","New Generation"," Built-1978","92 sqm / $434 psf(Built)","$430,000","Resale",103.9387352,1.3296222,"121 bedok north rd, block 121, singapore 460121"
"86",86,"  Blk 111 Jurong East Street 13 Singapore","5-Room","Improved"," Built-1981","120 sqm / $386 psf(Built)","$500,000","Resale",103.735569,1.3387661,"111 jurong east street 13, block 111, singapore 600111"
"87",87,"  Blk 19 Bedok South Road Singapore","5-Room","Improved"," Built-1976","119 sqm / $498 psf(Built)","$638,000","Resale",103.9342936,1.3196254,"19 bedok s rd, block 19, singapore 460019"
"88",88,"  Blk 308A Punggol Walk Singapore","4-Room","Model A"," Built-2016","92 sqm / $520 psf(Built)","$515,000","Resale",103.9005963,1.4076123,"308a punggol walk, singapore 821308"
"89",89,"  Blk 366 Clementi Avenue 2 Singapore","3-Room","Model A"," Built-2003","61 sqm / $639 psf(Built)","$420,000","Resale",103.7717325,1.3125343,"366 clementi ave 2, block 366, singapore 120366"
"90",90,"  Blk 488A Tampines Avenue 9 Singapore","5-Room","Improved"," Built-1989","121 sqm / $445 psf(Built)","$580,000","Resale",103.9564542,1.3599286,"488a tampines ave 9, singapore 520488"
"91",91,"  Blk 495B Tampines Street 43 Singapore","3-Room","Built-1994",NA,"147 sqm / $403 psf(Built)","$638,888","Resale",103.9513128,1.3628324,"495b tampines street 43, block 495b, singapore 521495"
"92",92,"  Blk 710 Ang Mo Kio Avenue 8 Singapore","5-Room","Improved"," Built-1980","117 sqm / $578 psf(Built)","$728,000","Resale",103.8482103,1.3710763,"710 ang mo kio ave 8, singapore 560710"
"93",93,"  Blk 716 Clementi West Street 2 Singapore","4-Room","New Generation"," Built-1981","91 sqm / $433 psf(Built)","$425,000","Resale",103.7628152,1.302303,"716 clementi west street 2, block 716, singapore 120716"
"94",94,"  Blk 639 Bedok Reservoir Road Singapore","HDB Executive","Apartment"," Built-1993","144 sqm / $482 psf(Built)","$748,000","Resale",103.9046567,1.3317207,"639 bedok reservoir rd, block 639, singapore 410639"
"95",95,"  Blk 32 Bedok South Avenue 2 Singapore","5-Room","Standard"," Built-1978","118 sqm / $470 psf(Built)","$598,000","Resale",103.9378287,1.3226774,"32 bedok south ave 2, block 32, singapore 460032"
"96",96,"  Blk 628 Bukit Batok Central Singapore","HDB Executive","Multi Generation"," Built-1997","140 sqm / $484 psf(Built)","$730,000","Resale",103.7498737,1.3514322,"628 bukit batok central, block 628, singapore 650628"
"97",97,"  Blk 311C Trivelis Singapore","4-Room","New Generation"," Built-2014","80 sqm / $915 psf(Built)","$788,000","Resale",103.7655694,1.3191667,"311a clementi ave 4, singapore 121311"
"98",98,"  Blk 4 Sago Lane Singapore","3-Room","Improved"," Built-1974","67 sqm / $624 psf(Built)","$450,000","Resale",103.8429707,1.2817753,"4 sago ln, singapore 050004"
"99",99,"  Blk 451A Sengkang West Way Singapore","4-Room","Model A"," Built-2015","92 sqm / $463 psf(Built)","$458,800","Resale",103.874039,1.3944327,"451a sengkang w way, singapore 790451"
"100",100,"  Blk 202A Compassvale Drive Singapore","HDB Executive","Apartment"," Built-2001","130 sqm / $420 psf(Built)","$588,000","Resale",103.893254,1.38875,"202a compassvale dr, singapore 541202"
"101",101,"  Blk 183C Boon Lay Avenue Singapore","4-Room","Model A"," Built-2015","92 sqm / $484 psf(Built)","$480,000","Resale",103.7092363,1.3485931,"183c boon lay ave, singapore 643183"
"102",102,"  Blk 320 Hougang Avenue 5 Singapore","5-Room","Model A"," Built-1983","121 sqm / $337 psf(Built)","$440,000","Resale",103.898155,1.366379,"320 hougang ave 5, singapore 530320"
"103",103,"  Blk 612A Punggol Drive Singapore","4-Room","Model A"," Built-2012","93 sqm / $437 psf(Built)","$438,000","Resale",103.9084641,1.4049257,"612a punggol dr, singapore"
"104",104,"  Blk 10A Tiong Bahru View Singapore","4-Room","Model A"," Built-2016","92 sqm / $994 psf(Built)","$985,000","Resale",103.8286125,1.2869556,"9a boon tiong rd, singapore 162009"
"105",105,"  Blk 287 Yishun Avenue 6 Singapore","3-Room","Model A"," Built-1985","74 sqm / $401 psf(Built)","$320,000","Resale",103.8375991,1.4396966,"287 yishun ave 6, singapore 760287"
"106",106,"  Blk 17B Circuit Road Singapore","4-Room","Model A"," Built-2016","93 sqm / $779 psf(Built)","$780,000","Resale",103.8890392,1.3299833,"17b circuit rd, singapore 372017"
"107",107,"  Blk 611 Hougang Avenue 8 Singapore","4-Room","Simplified"," Built-1986","84 sqm / $420 psf(Built)","$380,000","Resale",103.8846305,1.3700555,"611 hougang ave 8, block 611, singapore 530611"
"108",108,"  Blk 344 Ang Mo Kio Avenue 3 Singapore","4-Room","New Generation"," Built-1978","98 sqm / $454 psf(Built)","$480,000","Resale",103.8492068,1.3679934,"344 ang mo kio ave 3, block 344, singapore 560344"
"109",109,"  Blk 1G The Pinnacle@Duxton Singapore","4-Room","Premium Apartment"," Built-2011","93 sqm / $968 psf(Built)","$969,000","Resale",103.8412344,1.2757638,"1g cantonment rd, singapore 085301"
"110",110,"  Blk 807A Chai Chee Road Singapore","3-Room","Model A"," Built-2016","68 sqm / $710 psf(Built)","$520,000","Resale",103.9232433,1.3272024,"807a chai chee rd, singapore 461808"
"111",111,"  Blk 673B Edgefield Plains Singapore","4-Room","Model A"," Built-2015","90 sqm / $490 psf(Built)","$475,000","Resale",103.9110911,1.4069768,"673b edgefield plains, singapore 822673"
"112",112,"  Blk 525C Pasir Ris Street 51 Singapore","4-Room","Improved"," Built-2015","93 sqm / $487 psf(Built)","$488,000","Resale",103.9474365,1.3701025,"525c pasir ris street 51, singapore 513525"
"113",113,"  Blk 172B Edgedale Plains Singapore","5-Room","Improved"," Built-2004","110 sqm / $369 psf(Built)","$438,000","Resale",103.9119068,1.3958304,"172b edgedale plains, block 172b, singapore 822172"
"114",114,"  Blk 325 Hougang Avenue 7 Singapore","5-Room","Improved"," Built-1983","121 sqm / $422 psf(Built)","$550,000","Resale",103.8986531,1.3675372,"325 hougang ave 7, block 325, singapore 530325"
"115",115,"  Blk 308A Punggol Walk Singapore","4-Room","Model A"," Built-2016","92 sqm / $555 psf(Built)","$550,000","Resale",103.9005963,1.4076123,"308a punggol walk, singapore 821308"
"116",116,"  Blk 213C Punggol Walk Singapore","4-Room","Model A"," Built-2015","93 sqm / $454 psf(Built)","$455,000","Resale",103.8987968,1.4008405,"213c punggol walk, singapore 828792"
"117",117,"  Blk 23B Queen's Close Singapore","4-Room","Improved"," Built-1973","89 sqm / $467 psf(Built)","$448,000","Resale",103.8004802,1.293681,"23b queen's cl, block 23b, singapore 141023"
"118",118,"  Blk 68 Redhill Close Singapore","4-Room","Model A"," Built-2001","85 sqm / $612 psf(Built)","$560,000","Resale",103.8160563,1.2868666,"68 redhill cl, block 68, singapore 150068"
"119",119,"  Blk 298C Compassvale Street Singapore","HDB Executive","Executive Apartment"," Built-2001","134 sqm / $402 psf(Built)","$580,000","Resale",103.9014441,1.3964075,"298c compassvale st, singapore 543298"
"120",120,"  Blk 807C Choa Chu Kang Avenue 1 Singapore","4-Room","Model A"," Built-2015","92 sqm / $493 psf(Built)","$488,888","Resale",103.7455959,1.376412,"807c choa chu kang ave 1, singapore 683807"
"121",121,"  Blk 138D Lake Vista @ Yuan Ching Singapore","4-Room","Dbss"," Built-2014","91 sqm / $607 psf(Built)","$595,000","Resale",103.723436,1.327773,"blk 138d yuan ching rd, singapore 614138"
"122",122,"  Blk 105 Bedok Reservoir Road Singapore","3-Room","New Generation"," Built-1985","67 sqm / $457 psf(Built)","$330,000","Resale",103.909188,1.3291336,"105 bedok reservoir rd, block 105, singapore 470105"
"123",123,"  Blk 442C Fajar Road Singapore","4-Room","Model A"," Built-2015","93 sqm / $449 psf(Built)","$450,000","Resale",103.7709292,1.381497,"442c fajar rd, singapore 674442"
"124",124,"  Blk 298C Compassvale Street Singapore","HDB Executive","Executive Apartment"," Built-2001","134 sqm / $402 psf(Built)","$580,000","Resale",103.9014441,1.3964075,"298c compassvale st, singapore 543298"
"125",125,"  Blk 101 Yishun Avenue 5 Singapore","3-Room","New Generation"," Built-1978","68 sqm / $408 psf(Built)","$299,000","Resale",103.8275584,1.4312508,"101 yishun ave 5, singapore 760101"
"126",126,"  Blk 695 Jurong West Central 1 Singapore","5-Room","Design & Built"," Built-1998","126 sqm / $441 psf(Built)","$598,000","Resale",103.7073329,1.3425898,"695 jurong west central 1, block 695, singapore 640695"
"127",127,"  Blk 19 Bedok South Road Singapore","5-Room","Improved"," Built-1976","119 sqm / $498 psf(Built)","$638,000","Resale",103.9342936,1.3196254,"19 bedok s rd, block 19, singapore 460019"
"128",128,"  Blk 221 Boon Lay Place Singapore","5-Room","Standard"," Built-1976","109 sqm / $426 psf(Built)","$499,999","Resale",103.7124483,1.3461938,"221 boon lay pl, singapore 640221"
"129",129,"  Blk 111 Jurong East Street 13 Singapore","5-Room","Improved"," Built-1981","120 sqm / $386 psf(Built)","$500,000","Resale",103.735569,1.3387661,"111 jurong east street 13, block 111, singapore 600111"
"130",130,"  Blk 666B Punggol Drive Singapore","5-Room","Premium Apartment"," Built-2016","113 sqm / $542 psf(Built)","$660,000","Resale",103.9153018,1.4019207,"666b punggol dr, singapore 822666"
"131",131,"  Blk 28B Dover Crescent Singapore","4-Room","Model A"," Built-2012","88 sqm / $726 psf(Built)","$688,000","Resale",103.7819406,1.3053608,"28b dover cres, singapore 132028"
"132",132,"  Blk 107 Jalan Bukit Merah Singapore","3-Room","Improved"," Built-1970","63 sqm / $427 psf(Built)","$290,000","Resale",103.8247507,1.2799457,"107 jalan bukit merah, block 107, singapore 160107"
"133",133,"  Blk 519C Centrale 8 At Tampines Singapore","4-Room","Model A"," Built-2014","84 sqm / $735 psf(Built)","$665,000","Resale",103.9400496,1.3562179,"519c tampines central 8, singapore 524519"
"134",134,"  Blk 183 Bedok North Road Singapore","4-Room","Model A"," Built-2005","92 sqm / $631 psf(Built)","$625,000","Resale",103.9418172,1.3263854,"183 bedok north rd, block 183, singapore 460183"
"135",135,"  Blk 308 Shunfu Road Singapore","3-Room","New Generation"," Built-1984","67 sqm / $624 psf(Built)","$450,000","Resale",103.8379898,1.3515149,"308 shunfu rd, singapore 570308"
"136",136,"  Blk 52 Telok Blangah Drive Singapore","5-Room","Improved"," Built-1978","118 sqm / $511 psf(Built)","$650,000","Resale",103.8111707,1.2738102,"52 telok blangah dr, block 52, singapore 100052"
"137",137,"  Blk 473A Upper Serangoon Crescent Singapore","5-Room","Improved"," Built-2016","112 sqm / $497 psf(Built)","$600,000","Resale",103.9003069,1.3767753,"473a upper serangoon cres, singapore 531473"
"138",138,"  Blk 311B Trivelis Singapore","4-Room","Model A"," Built-2014","82 sqm / $869 psf(Built)","$768,000","Resale",103.7655694,1.3191667,"311a clementi ave 4, singapore 121311"
"139",139,"  Blk 6 Holland Close Singapore","3-Room","Improved"," Built-1974","65 sqm / $540 psf(Built)","$378,000","Resale",103.7954772,1.3071143,"6 holland cl, block 6, singapore 271006"
"140",140,"  Blk 245 Pasir Ris Street 21 Singapore","HDB Executive","Executive Apartment"," Built-1993","150 sqm / $426 psf(Built)","$688,000","Resale",103.962849,1.3710566,"245 pasir ris street 21, singapore 510245"
"141",141,"  Blk 476C Upper Serangoon View Singapore","5-Room","Built-2016",NA,"112 sqm / $580 psf(Built)","$700,000","Resale",103.9042942,1.3780703,"476c upper serangoon view, singapore 531476"
"142",142,"  Blk 308A Punggol Walk Singapore","4-Room","Model A"," Built-2016","92 sqm / $555 psf(Built)","$550,000","Resale",103.9005963,1.4076123,"308a punggol walk, singapore 821308"
"143",143,"  Blk 183C Boon Lay Avenue Singapore","4-Room","Model A"," Built-2015","92 sqm / $484 psf(Built)","$480,000","Resale",103.7092363,1.3485931,"183c boon lay ave, singapore 643183"
"144",144,"  Blk 436 Ang Mo Kio Avenue 10 Singapore","4-Room","New Generation"," Built-1979","92 sqm / $454 psf(Built)","$450,000","Resale",103.8539133,1.3673911,"436 ang mo kio ave 10, block 436, singapore 560436"
"145",145,"  Blk 469B Admiralty Drive Singapore","HDB Executive","Apartment"," Built-2001","137 sqm / $332 psf(Built)","$490,000","Resale",103.8133847,1.4484762,"469b admiralty dr, block 469b, singapore 752469"
"146",146,"  Blk 105 Bedok Reservoir Road Singapore","3-Room","New Generation"," Built-1985","67 sqm / $457 psf(Built)","$330,000","Resale",103.909188,1.3291336,"105 bedok reservoir rd, block 105, singapore 470105"
"147",147,"  Blk 332B Anchorvale Link Singapore","5-Room","Improved"," Built-2015","112 sqm / $538 psf(Built)","$650,000","Resale",103.8914065,1.3951513,"332c anchorvale link, blk 332b, singapore 543332"
"148",148,"  Blk 708 Tampines Street 71 Singapore","5-Room","Improved"," Built-1997","119 sqm / $441 psf(Built)","$565,000","Resale",103.936767,1.358019,"708 tampines street 71, singapore 520708"
"149",149,"  Blk 622C Punggol Central Singapore","4-Room","Model A"," Built-2014","95 sqm / $444 psf(Built)","$455,000","Resale",103.9107966,1.4007295,"622c punggol central, singapore 823622"
"150",150,"  Blk 645 Punggol Central Singapore","5-Room","Standard"," Built-2005","110 sqm / $375 psf(Built)","$445,000","Resale",103.916257,1.397783,"645 punggol central, block 645, singapore 820645"
"151",151,"  Blk 296C Compassvale Crescent Singapore","5-Room","Improved"," Built-2002","110 sqm / $404 psf(Built)","$479,000","Resale",103.8996726,1.3975166,"296c compassvale cres, singapore 543296"
"152",152,"  Blk 267 Toh Guan Road Singapore","5-Room","Model A"," Built-1998","121 sqm / $474 psf(Built)","$618,000","Resale",103.7447108,1.3410576,"267 toh guan rd, block 267, singapore 600267"
"153",153,"  Blk 310B Punggol Walk Singapore","4-Room","Improved"," Built-2015","92 sqm / $563 psf(Built)","$558,000","Resale",103.9004061,1.4094207,"310b punggol walk, singapore 822310"
"154",154,"  Blk 91 Dawson Road Singapore","4-Room","Model A"," Built-2016","83 sqm / $923 psf(Built)","$825,000","Resale",103.8124286,1.2953426,"91 dawson rd, singapore 144091"
"155",155,"  Blk 8 Holland Avenue Singapore","4-Room","Model A"," Built-1974","82 sqm / $578 psf(Built)","$510,000","Resale",103.7945038,1.306882,"8 holland ave, block 8, singapore 271008"
"156",156,"  Blk 15 Beach Road Singapore","4-Room","Built-1975",NA,"77 sqm / $624 psf(Built)","$518,000","Resale",103.8555367,1.2958343,"15 beach rd, singapore 190015"
"157",157,"  Blk 9 Holland Avenue Singapore","4-Room","Improved"," Built-1974","86 sqm / $570 psf(Built)","$528,000","Resale",103.7947075,1.307704,"9 holland ave, singapore 272009"
"158",158,"  Blk 443D Fajar Road Singapore","5-Room","Improved"," Built-2016","113 sqm / $542 psf(Built)","$660,000","Resale",103.7704708,1.3805372,"443d fajar rd, singapore 674442"
"159",159,"  Blk 332C Anchorvale Link Singapore","5-Room","Model A"," Built-2015","112 sqm / $497 psf(Built)","$600,000","Resale",103.8914065,1.3951513,"332c anchorvale link, blk 332b, singapore 543332"
"160",160,"  Blk 260B Punggol Way Singapore","4-Room","Model A"," Built-2015","93 sqm / $478 psf(Built)","$479,000","Resale",103.8967952,1.4047619,"260b punggol way, singapore"
"161",161,"  Blk 212A Punggol Walk Singapore","5-Room","Standard"," Built-2015","93 sqm / $467 psf(Built)","$468,000","Resale",103.8991918,1.3997175,"212 punggol walk, singapore 822209"
"162",162,"  Blk 268C Punggol Field Singapore","4-Room","Model A"," Built-2013","97 sqm / $522 psf(Built)","$545,000","Resale",103.897846,1.403457,"268c punggol field, singapore 823268"
"163",163,"  Blk 111A Depot Road Singapore","5-Room","Model A"," Built-2006","115 sqm / $614 psf(Built)","$760,000","Resale",103.8088168,1.2811278,"111a depot rd, block 111a, singapore 101111"
"164",164,"  Blk 522C Tampines Central 7 Singapore","3-Room","Model A"," Built-2015","93 sqm / $584 psf(Built)","$585,000","Resale",103.9394263,1.3579162,"522c tampines central 7, singapore 523522"
"165",165,"  Blk 63A Lengkok Bahru Singapore","4-Room","Standard"," Built-2001","94 sqm / $750 psf(Built)","$760,000","Resale",103.8153318,1.2897957,"63a lengkok bahru, block 63a, singapore 151063"
"166",166,"  Blk 475D Parkland Residences Singapore","4-Room","Model A"," Built-2014","92 sqm / $606 psf(Built)","$600,000","Resale",103.9002105,1.375868,"475a upper serangoon cres, singapore 531475"
"167",167,"  Blk 520B Centrale 8 At Tampines Singapore","5-Room","Improved"," Built-2014","108 sqm / $700 psf(Built)","$815,000","Resale",103.9404167,1.3568659,"519 tampines central 8, singapore 520519"
"168",168,"  Blk 310C Punggol Walk Singapore","4-Room","Model A"," Built-2015","92 sqm / $515 psf(Built)","$510,000","Resale",103.8999638,1.4096731,"310 c punggol walk, singapore 822310"
"169",169,"  Blk 471A Fernvale Rivergrove Singapore","4-Room","Model A"," Built-2016","92 sqm / $454 psf(Built)","$450,000","Resale",103.8805131,1.3966499,"470b fernvale link, singapore 792470"
"170",170,"  Blk 155 Gangsa Road Singapore","HDB Executive","Apartment"," Built-1998","140 sqm / $489 psf(Built)","$738,000","Resale",103.7651011,1.3753213,"155 gangsa rd, block 155, singapore 670155"
"171",171,"  Blk 469C Sengkang West Way Singapore","4-Room","New Generation"," Built-2016","93 sqm / $499 psf(Built)","$500,000","Resale",103.8776423,1.3961543,"469c sengkang w way, singapore 790469"
"172",172,"  Blk 109 Bukit Purmei Road Singapore","3-Room","Model A"," Built-1984","79 sqm / $469 psf(Built)","$399,000","Resale",103.8252941,1.2739482,"109 bukit purmei rd, block 109, singapore 090109"
"173",173,"  Blk 183 Jelebu Road Singapore","5-Room","Model A"," Built-2003","110 sqm / $591 psf(Built)","$700,000","Resale",103.7630381,1.3799915,"183 jelebu rd, singapore 670183 jelebu rd, singapore 670183"
"174",174,"  Blk 93 Dawson Road Singapore","4-Room","Improved"," Built-2015","83 sqm / $938 psf(Built)","$838,000","Resale",103.8116287,1.294954,"93 dawson rd, singapore 141092"
"175",175,"  Blk 308C Punggol Walk Singapore","5-Room","Improved"," Built-2016","112 sqm / $646 psf(Built)","$780,000","Resale",103.8991162,1.4080103,"308c punggol walk, singapore 823308"
"176",176,"  Blk 788D Woodlands Crescent Singapore","HDB Executive","Maisonette"," Built-1999","143 sqm / $441 psf(Built)","$680,000","Resale",103.8023818,1.4439563,"788d woodlands cres, block 788d, singapore 734788"
"177",177,"  Blk 310B Punggol Walk Singapore","4-Room","Model A"," Built-2016","92 sqm / $604 psf(Built)","$598,000","Resale",103.9004061,1.4094207,"310b punggol walk, singapore 822310"
"178",178,"  Blk 249 Tampines Street 21 Singapore","4-Room","Model A"," Built-1984","103 sqm / $458 psf(Built)","$508,000","Resale",103.9484346,1.3518862,"249 tampines street 21, block 249, singapore 520249"
"179",179,"  Blk 672A Klang Lane Singapore","5-Room","Improved"," Built-2002","105 sqm / $495 psf(Built)","$560,000","Resale",103.8524905,1.3085134,"672a klang ln, singapore 211672"
"180",180,"  Blk 342 Clementi Avenue 5 Singapore","5-Room","Improved"," Built-1979","123 sqm / $475 psf(Built)","$630,000","Resale",103.7699671,1.3182164,"342 clementi ave 5, block 342, singapore 120342"
"181",181,"  Blk 91 Dawson Road Singapore","5-Room","Model A"," Built-2016","99 sqm / $1,002 psf(Built)","$1,068,888","Resale",103.8124286,1.2953426,"91 dawson rd, singapore 144091"
"182",182,"  Blk 268C Punggol Field Singapore","4-Room","Model A"," Built-2013","93 sqm / $538 psf(Built)","$538,888","Resale",103.897846,1.403457,"268c punggol field, singapore 823268"
"183",183,"  Blk 301 Shunfu Road Singapore","HDB Executive","Maisonette"," Built-1985","148 sqm / $677 psf(Built)","$1,080,000","Resale",103.8382496,1.3493864,"301 shunfu rd, block 301, singapore 570301"
"184",184,"  Blk 665 Jalan Damai Singapore","HDB Executive","Maisonette"," Built-2020","146 sqm / $515 psf(Built)","$810,000","Resale",103.9081004,1.3341158,"665 jln damai, block 665, singapore 410665"
"185",185,"  Blk 8 Holland Avenue Singapore","4-Room","Model A"," Built-1974","82 sqm / $578 psf(Built)","$510,000","Resale",103.7945038,1.306882,"8 holland ave, block 8, singapore 271008"
"186",186,"  Blk 224 Serangoon Avenue 4 Singapore","4-Room","New Generation"," Built-1984","92 sqm / $464 psf(Built)","$460,000","Resale",103.8707693,1.3572417,"224 serangoon ave 4, block 224, singapore 550224"
"187",187,"  Blk 310B Punggol Walk Singapore","3-Room","Model A"," Built-2016","67 sqm / $589 psf(Built)","$425,000","Resale",103.9004061,1.4094207,"310b punggol walk, singapore 822310"
"188",188,"  Blk 531 Serangoon North Avenue 4 Singapore","5-Room","Improved"," Built-1992","122 sqm / $394 psf(Built)","$518,000","Resale",103.8750065,1.3748122,"531 serangoon north ave 4, block 531, singapore 550531"
"189",189,"  Blk 519B Centrale 8 At Tampines Singapore","5-Room","Model A"," Built-2014","108 sqm / $743 psf(Built)","$865,000","Resale",103.9402308,1.3568025,"519 tampines central 8, singapore 523519"
"190",190,"  Blk 407A Fernvale Road Singapore","5-Room","Improved"," Built-2004","110 sqm / $439 psf(Built)","$520,000","Resale",103.8753009,1.3883477,"407a fernvale rd, block 407a, singapore 791407"
"191",191,"  Blk 443D Fajar Road Singapore","5-Room","Improved"," Built-2016","113 sqm / $542 psf(Built)","$660,000","Resale",103.7704708,1.3805372,"443d fajar rd, singapore 674442"
"192",192,"  Blk 260C Punggol Way Singapore","4-Room","Model A"," Built-2016","93 sqm / $499 psf(Built)","$500,000","Resale",103.8967361,1.4048314,"260c punggol way, singapore 821260"
"193",193,"  Blk 671 Hougang Avenue 8 Singapore","4-Room","Model A"," Built-1987","104 sqm / $356 psf(Built)","$399,000","Resale",103.883815,1.373137,"671 hougang ave 8, block 671, singapore 530671"
"194",194,"  Blk 167 Bishan Street 13 Singapore","4-Room","Model A"," Built-1988","104 sqm / $445 psf(Built)","$499,000","Resale",103.8555479,1.3479618,"167 bishan street 13, block 167, singapore 570167"
"195",195,"  Blk 126 Simei Street 1 Singapore","5-Room","Improved"," Built-1988","125 sqm / $400 psf(Built)","$538,888","Resale",103.9542031,1.347063,"126 simei street 1, singapore 520128"
"196",196,"  Blk 268C Punggol Field Singapore","4-Room","Model A"," Built-2013","97 sqm / $522 psf(Built)","$545,000","Resale",103.897846,1.403457,"268c punggol field, singapore 823268"
"197",197,"  Blk 88 Telok Blangah Heights Singapore","4-Room","Model A"," Built-2003","85 sqm / $708 psf(Built)","$648,000","Resale",103.808268,1.2774773,"88 telok blangah heights, block 88, singapore 100088"
"198",198,"  Blk 414 Serangoon Central Singapore","5-Room","Improved"," Built-1989","121 sqm / $576 psf(Built)","$750,000","Resale",103.8744073,1.3487291,"414 serangoon central, block 414, singapore 550414"
"199",199,"  Blk 308A Punggol Walk Singapore","4-Room","Model A"," Built-2016","92 sqm / $543 psf(Built)","$538,000","Resale",103.9005963,1.4076123,"308a punggol walk, singapore 821308"
"200",200,"  Blk 6 Holland Close Singapore","3-Room","Improved"," Built-1974","65 sqm / $540 psf(Built)","$378,000","Resale",103.7954772,1.3071143,"6 holland cl, block 6, singapore 271006"
"201",201,"  Blk 331 Tah Ching Road Singapore","HDB Executive","Apartment"," Built-1996","139 sqm / $433 psf(Built)","$648,000","Resale",103.7235083,1.3380879,"331 tah ching rd, block 331, singapore 611331"
"202",202,"  Blk 530C Pasir Ris One Singapore","4-Room","Model A"," Built-2015","86 sqm / $796 psf(Built)","$737,999","Resale",103.9501566,1.3716643,"530c pasir ris dr 1, singapore 513530"
"203",203,"  Blk 461 Choa Chu Kang Avenue 4 Singapore","5-Room","Improved"," Built-1998","123 sqm / $398 psf(Built)","$528,000","Resale",103.7344602,1.3782503,"461 choa chu kang ave 4, block 461, singapore 680461"
"204",204,"  Blk 672A Klang Lane Singapore","5-Room","Improved"," Built-2002","105 sqm / $495 psf(Built)","$560,000","Resale",103.8524905,1.3085134,"672a klang ln, singapore 211672"
"205",205,"  Blk 342 Clementi Avenue 5 Singapore","5-Room","Improved"," Built-1979","123 sqm / $475 psf(Built)","$630,000","Resale",103.7699671,1.3182164,"342 clementi ave 5, block 342, singapore 120342"
"206",206,"  Blk 148 Bishan Street 11 Singapore","Multi-Gen/Jumbo","Multi Generation"," Built-1987","134 sqm / $596 psf(Built)","$860,000","Resale",103.854642,1.344233,"148 bishan street 11, block 148, singapore 570148"
"207",207,"  Blk 475C Parkland Residences Singapore","3-Room","Model A"," Built-2014","65 sqm / $785 psf(Built)","$550,000","Resale",103.9002105,1.375868,"475a upper serangoon cres, singapore 531475"
"208",208,"  Blk 92 Dawson Road Singapore","4-Room","Improved"," Built-2016","97 sqm / $946 psf(Built)","$988,000","Resale",103.8114169,1.2950444,"92 dawson rd, singapore 141092"
"209",209,"  Blk 348C Adora Green Singapore","4-Room","Model A"," Built-2013","92 sqm / $574 psf(Built)","$568,888","Resale",103.8411561,1.4272785,"yishun ave 11, singapore 761347"
"210",210,"  Blk 890A Tampines Avenue 1 Singapore","4-Room","Model A"," Built-2015","93 sqm / $539 psf(Built)","$540,000","Resale",103.9341207,1.3466119,"890a tampines ave 1, singapore 521899"
"211",211,"  Blk 4 Queens Road Singapore","3-Room","Improved"," Built-1974","73 sqm / $545 psf(Built)","$428,888","Resale",103.8083359,1.3191525,"4 queen's rd, singapore 260004"
"212",212,"  Blk 247 Hougang Avenue 3 Singapore","3-Room","New Generation"," Built-1984","67 sqm / $485 psf(Built)","$350,000","Resale",103.891517,1.359102,"247 hougang ave 3, block 247, singapore 530247"
"213",213,"  Blk 663A Punggol Drive Singapore","5-Room","Improved"," Built-2015","110 sqm / $489 psf(Built)","$579,999","Resale",103.9176164,1.4004133,"663a punggol dr, singapore 821663"
"214",214,"  Blk 91 Dawson Road Singapore","4-Room","Model A"," Built-2016","83 sqm / $979 psf(Built)","$875,000","Resale",103.8124286,1.2953426,"91 dawson rd, singapore 144091"
"215",215,"  Blk 260A Punggol Way Singapore","4-Room","Model A"," Built-2016","93 sqm / $507 psf(Built)","$508,000","Resale",103.8968404,1.404923,"260a punggol way, singapore"
"216",216,"  Blk 440A Fernvale Link Singapore","5-Room","Improved"," Built-2015","113 sqm / $467 psf(Built)","$568,000","Resale",103.8787409,1.3933103,"440a fernvale link, singapore 797700"
"217",217,"  Blk 807C Chai Chee Road Singapore","5-Room","Model A"," Built-2015","113 sqm / $657 psf(Built)","$800,000","Resale",103.923325,1.328094,"807c chai chee rd, singapore 463807"
"218",218,"  Blk 220 Serangoon Avenue 4 Singapore","4-Room","New Generation"," Built-1984","93 sqm / $549 psf(Built)","$550,000","Resale",103.87222,1.3586973,"220 serangoon ave 4, block 220, singapore 550220"
"219",219,"  Blk 101 Bishan Street 12 Singapore","5-Room","Improved"," Built-1987","121 sqm / $599 psf(Built)","$780,000","Resale",103.8485047,1.3449091,"101 bishan street 12, singapore 570103"
"220",220,"  Blk 502 Hougang Avenue 8 Singapore","3-Room","Improved"," Built-1987","121 sqm / $403 psf(Built)","$526,000","Resale",103.8868168,1.3727349,"502 hougang ave 8, singapore 530502"
"221",221,"  Blk 310 Shunfu Road Singapore","5-Room","Improved"," Built-1984","121 sqm / $522 psf(Built)","$680,000","Resale",103.8384743,1.3509026,"310 shunfu rd, singapore 570310"
"222",222,"  Blk 123 Paya Lebar Way Singapore","5-Room","Improved"," Built-1980","117 sqm / $501 psf(Built)","$632,000","Resale",103.8832714,1.3229161,"123 paya lebar way, block 123, singapore 381123"
"223",223,"  Blk 522 Hougang Avenue 6 Singapore","HDB Executive","Maisonette"," Built-1987","145 sqm / $473 psf(Built)","$738,888","Resale",103.8918795,1.3737485,"522 hougang ave 6, block 522, singapore 530522"
"224",224,"  Blk 266C Punggol Way Singapore","4-Room","Model A"," Built-2015","92 sqm / $484 psf(Built)","$480,000","Resale",103.8977016,1.4050971,"266 c punggol way, singapore 820268"
"225",225,"  Blk 73A Redhill Road Singapore","5-Room","Model A"," Built-2005","115 sqm / $636 psf(Built)","$788,000","Resale",103.816793,1.288072,"73a redhill rd, singapore 151073"
"226",226,"  Blk 88 Telok Blangah Heights Singapore","4-Room","Model A"," Built-2003","85 sqm / $708 psf(Built)","$648,000","Resale",103.808268,1.2774773,"88 telok blangah heights, block 88, singapore 100088"
"227",227,"  Blk 8 Marine Terrace Singapore","3-Room","Improved"," Built-1975","65 sqm / $600 psf(Built)","$420,000","Resale",103.9160757,1.3045165,"8 marine terrace, block 8, singapore 440008"
"228",228,"  Blk 202A Punggol Field Singapore","5-Room","Improved"," Built-2004","110 sqm / $405 psf(Built)","$480,000","Resale",103.9045541,1.399838,"202a punggol field, singapore 821202"
"229",229,"  Blk 846 Tampines Street 82 Singapore","3-Room","Standard"," Built-1986","74 sqm / $451 psf(Built)","$360,000","Resale",103.9358346,1.3521796,"846 tampines street 82, block 846, singapore 520846"
"230",230,"  Blk 135 Bishan Street 12 Singapore","5-Room","Improved"," Built-1987","121 sqm / $491 psf(Built)","$640,000","Resale",103.851245,1.3445821,"135 bishan street 12, block 135, singapore 570135"
"231",231,"  Blk 1 Ghim Moh Road Singapore","3-Room","Standard"," Built-1976","65 sqm / $554 psf(Built)","$388,000","Resale",103.787272,1.3129794,"1 ghim moh rd, singapore 270001"
"232",232,"  Blk 43 Marine Crescent Singapore","5-Room","Improved"," Built-1975","120 sqm / $571 psf(Built)","$738,000","Resale",103.9130396,1.3054477,"43 marine cres, block 43, singapore 440043"
"233",233,"  Blk 14A Upper Boon Keng Road Singapore","4-Room","Model A"," Built-1999","101 sqm / $643 psf(Built)","$700,000","Resale",103.8706547,1.3154703,"14a upper boon keng rd, block 14a, singapore 381014"
"234",234,"  Blk 469C Sengkang West Way Singapore","4-Room","New Generation"," Built-2016","93 sqm / $499 psf(Built)","$500,000","Resale",103.8776423,1.3961543,"469c sengkang w way, singapore 790469"
"235",235,"  Blk 37 Telok Blangah Rise Singapore","5-Room","Improved"," Built-1976","118 sqm / $469 psf(Built)","$595,999","Resale",103.8229402,1.2727975,"37 telok blangah rise, block 37, singapore 090037"
"236",236,"  Blk 690 Jurong West Central 1 Singapore","5-Room","Design & Built"," Built-1998","119 sqm / $394 psf(Built)","$505,000","Resale",103.7067447,1.3413112,"690 jurong west central 1, block 690, singapore 640690"
"237",237,"  Blk 890A Tampines Avenue 1 Singapore","4-Room","Model A"," Built-2015","93 sqm / $539 psf(Built)","$540,000","Resale",103.9341207,1.3466119,"890a tampines ave 1, singapore 521899"
"238",238,"  Blk 103 Ah Hood Road Singapore","5-Room","Improved"," Built-1981","118 sqm / $531 psf(Built)","$675,000","Resale",103.8442647,1.3277145,"103 ah hood rd, singapore 320103"
"239",239,"  Blk 87 Dawson Road Singapore","4-Room","Model A"," Built-2016","83 sqm / $994 psf(Built)","$888,000","Resale",103.8099048,1.2960052,"87 dawson rd, singapore 141087"
"240",240,"  Blk 131B Kim Tian Road Singapore","4-Room","Model A"," Built-2002","91 sqm / $702 psf(Built)","$688,000","Resale",103.8282723,1.2809123,"131b kim tian rd, singapore 162131"
"241",241,"  Blk 184 Jelebu Road Singapore","HDB Executive","Apartment"," Built-2003","124 sqm / $554 psf(Built)","$740,000","Resale",103.7623626,1.3797172,"184 jelebu rd, block 184, singapore 670184"
"242",242,"  Blk 88 Telok Blangah Heights Singapore","5-Room","Model A"," Built-2003","110 sqm / $699 psf(Built)","$828,000","Resale",103.808268,1.2774773,"88 telok blangah heights, block 88, singapore 100088"
"243",243,"  Blk 118B Jalan Membina Singapore","5-Room","Improved"," Built-2001","110 sqm / $760 psf(Built)","$900,000","Resale",103.8260912,1.2820389,"118b jln membina, block 118b, singapore 162118"
"244",244,"  Blk 20 Kallang Singapore","5-Room","Model A"," ","131 sqm / $531 psf(Built)","$750,000","Resale",103.8630953,1.3246178,"20 st george's rd, singapore 321020"
"245",245,"  Blk 6B Boon Tiong Road Singapore","4-Room","Model A"," Built-2005","100 sqm / $789 psf(Built)","$849,000","Resale",103.8309096,1.2866383,"6b boon tiong rd, block 6b, singapore 165006"
"246",246,"  Blk 341 Tampines Street 33 Singapore","5-Room","Improved"," Built-1995","127 sqm / $386 psf(Built)","$528,000","Resale",103.9609451,1.3513005,"341 tampines street 33, block 341, singapore 520341"
"247",247,"  Blk 89 Dawson Road Singapore","4-Room","Standard"," Built-2016","95 sqm / $928 psf(Built)","$950,000","Resale",103.8118373,1.2953964,"89 dawson rd, singapore 142089"
"248",248,"  Blk 67 Telok Blangah Drive Singapore","5-Room","Simplified"," Built-1978","118 sqm / $480 psf(Built)","$610,000","Resale",103.809717,1.2747644,"67 telok blangah dr, block 67, singapore 100067"
"249",249,"  Blk 306A Anchorvale Link Singapore","5-Room","Improved"," Built-2002","110 sqm / $421 psf(Built)","$499,000","Resale",103.8886113,1.390388,"306a anchorvale link, singapore 541306"
"250",250,"  Blk 303B Punggol Central Singapore","4-Room","New Generation"," Built-2010","93 sqm / $574 psf(Built)","$575,000","Resale",103.9061944,1.4037736,"303b punggol central, singapore 822303"
"251",251,"  Blk 416C Fernvale Link Singapore","5-Room","Model A"," Built-2016","112 sqm / $497 psf(Built)","$600,000","Resale",103.8797571,1.3898643,"416c fernvale link, singapore 791416"
"252",252,"  Blk 530C Pasir Ris One Singapore","4-Room","Model A"," Built-2015","86 sqm / $701 psf(Built)","$650,000","Resale",103.9501566,1.3716643,"530c pasir ris dr 1, singapore 513530"
"253",253,"  Blk 622C Punggol Central Singapore","4-Room","Model A"," Built-2014","95 sqm / $444 psf(Built)","$455,000","Resale",103.9107966,1.4007295,"622c punggol central, singapore 823622"
"254",254,"  Blk 557 Choa Chu Kang North 6 Singapore","HDB Executive","Apartment"," Built-1996","146 sqm / $356 psf(Built)","$560,000","Resale",103.7441677,1.3954427,"557 choa chu kang north 6, block 557, singapore 680557"
"255",255,"  Blk 473A Upper Serangoon Crescent Singapore","5-Room","Improved"," Built-2016","112 sqm / $497 psf(Built)","$600,000","Resale",103.9003069,1.3767753,"473a upper serangoon cres, singapore 531473"
"256",256,"  Blk 476C Upper Serangoon View Singapore","5-Room","Built-2016",NA,"112 sqm / $580 psf(Built)","$700,000","Resale",103.9042942,1.3780703,"476c upper serangoon view, singapore 531476"
"257",257,"  Blk 509A Wellington Circle Singapore","5-Room","Improved"," Built-2004","110 sqm / $358 psf(Built)","$425,000","Resale",103.8205866,1.452973,"509a wellington cir, singapore 751509"
"258",258,"  Blk 946 Tampines Avenue 4 Singapore","5-Room","Improved"," Built-1988","122 sqm / $495 psf(Built)","$650,000","Resale",103.9397879,1.3514,"946 tampines ave 4, singapore 520946"
"259",259,"  Blk 40 Circuit Road Singapore","2-Room","Standard"," Built-1971","47 sqm / $434 psf(Built)","$220,000","Resale",103.8864427,1.3276542,"40 circuit rd, block 40, singapore 370040"
"260",260,"  Blk 308A Punggol Walk Singapore","5-Room","Model A"," Built-2016","112 sqm / $597 psf(Built)","$720,000","Resale",103.9005963,1.4076123,"308a punggol walk, singapore 821308"
"261",261,"  Blk 518 Pasir Ris Street 52 Singapore","5-Room","Improved"," Built-1993","129 sqm / $437 psf(Built)","$608,000","Resale",103.9444686,1.3744799,"518 pasir ris street 52, block 518, singapore 510518"
"262",262,"  Blk 229 Lorong 8 Toa Payoh Singapore","5-Room","Improved"," Built-1976","114 sqm / $444 psf(Built)","$545,000","Resale",103.8591683,1.3387228,"229 lor 8 toa payoh, block 229, singapore 310229"
"263",263,"  Blk 93 Dawson Road Singapore","5-Room","Model A"," Built-2016","122 sqm / $822 psf(Built)","$1,080,000","Resale",103.8116287,1.294954,"93 dawson rd, singapore 141092"
"264",264,"  Blk 311B Trivelis Singapore","4-Room","Standard"," Built-2014","80 sqm / $917 psf(Built)","$790,000","Resale",103.7655694,1.3191667,"311a clementi ave 4, singapore 121311"
"265",265,"  Blk 128 Pasir Ris Street 11 Singapore","HDB Executive","Maisonette"," Built-1988","146 sqm / $424 psf(Built)","$668,000","Resale",103.9553243,1.3661951,"128 pasir ris street 11, block 128, singapore 510128"
"266",266,"  Blk 633 Ang Mo Kio Avenue 6 Singapore","4-Room","New Generation"," Built-1985","93 sqm / $399 psf(Built)","$400,000","Resale",103.8423224,1.381223,"633 ang mo kio ave 6, block 633, singapore 560633"
"267",267,"  Blk 310B Punggol Walk Singapore","5-Room","Standard"," Built-2016","112 sqm / $547 psf(Built)","$659,999","Resale",103.9004061,1.4094207,"310b punggol walk, singapore 822310"
"268",268,"  Blk 268C Punggol Field Singapore","4-Room","Model A"," Built-2013","97 sqm / $522 psf(Built)","$545,000","Resale",103.897846,1.403457,"268c punggol field, singapore 823268"
"269",269,"  Blk 228 Bishan Street 23 Singapore","4-Room","Model A"," Built-1992","105 sqm / $504 psf(Built)","$570,000","Resale",103.846761,1.358119,"228 bishan street 23, block 228, singapore 570228"
"270",270,"  Blk 475D Parkland Residences Singapore","4-Room","Model A"," Built-2014","92 sqm / $606 psf(Built)","$600,000","Resale",103.9002105,1.375868,"475a upper serangoon cres, singapore 531475"
"271",271,"  Blk 139 Potong Pasir Avenue 3 Singapore","3-Room","Model A"," Built-1984","74 sqm / $483 psf(Built)","$385,000","Resale",103.8661493,1.3332643,"139 potong pasir ave 3, block 139, singapore 350139"
"272",272,"  Blk 671 Hougang Avenue 8 Singapore","4-Room","Model A"," Built-1987","104 sqm / $356 psf(Built)","$399,000","Resale",103.883815,1.373137,"671 hougang ave 8, block 671, singapore 530671"
"273",273,"  Blk 605 Senja Road Singapore","4-Room","Model A"," Built-1999","99 sqm / $581 psf(Built)","$620,000","Resale",103.7618194,1.38082,"605 senja rd, block 605, singapore 670605"
"274",274,"  Blk 443 Ang Mo Kio Avenue 10 Singapore","3-Room","New Generation"," Built-1979","67 sqm / $427 psf(Built)","$308,000","Resale",103.8553623,1.3660482,"443 ang mo kio ave 10, singapore 560443"
"275",275,"  Blk 151 Bishan Street 11 Singapore","4-Room","Simplified"," Built-1989","93 sqm / $449 psf(Built)","$450,000","Resale",103.8555931,1.3451427,"151 bishan street 11, block 151, singapore 570151"
"276",276,"  Blk 138D Lake Vista @ Yuan Ching Singapore","3-Room","Standard"," Built-2014","67 sqm / $721 psf(Built)","$520,000","Resale",103.723436,1.327773,"blk 138d yuan ching rd, singapore 614138"
"277",277,"  Blk 522C Tampines Central 7 Singapore","3-Room","Model A"," Built-2015","93 sqm / $584 psf(Built)","$585,000","Resale",103.9394263,1.3579162,"522c tampines central 7, singapore 523522"
"278",278,"  Blk 291 Bishan Street 24 Singapore","4-Room","Model A"," Built-1998","104 sqm / $536 psf(Built)","$600,000","Resale",103.8451415,1.3557742,"291 bishan street 24, singapore 570291"
"279",279,"  Blk 118C Jalan Membina Singapore","4-Room","Model A"," Built-2003","91 sqm / $816 psf(Built)","$800,000","Resale",103.8263583,1.2823678,"118c jln membina, block 118c, singapore 163118"
"280",280,"  Blk 86 Dawson Road Singapore","4-Room","Model A"," Built-2016","83 sqm / $1,047 psf(Built)","$935,000","Resale",103.8103377,1.2956741,"86 dawson rd, singapore 141086"
"281",281,"  Blk 4 Holland Close Singapore","3-Room","Improved"," Built-1974","65 sqm / $542 psf(Built)","$380,000","Resale",103.7957715,1.3079724,"4 holland cl, block 4, singapore 271004"
"282",282,"  Blk 250 Kim Keat Link Singapore","5-Room","Improved"," Built-1989","121 sqm / $526 psf(Built)","$686,000","Resale",103.8569974,1.3317748,"250 kim keat link, singapore 310250"
"283",283,"  Blk 86 Dawson Road Singapore","4-Room","Model A"," Built-2016","86 sqm / $1,012 psf(Built)","$938,000","Resale",103.8103377,1.2956741,"86 dawson rd, singapore 141086"
"284",284,"  Blk 143 Lorong 2 Toa Payoh Singapore","5-Room","Improved"," Built-2002","110 sqm / $616 psf(Built)","$730,000","Resale",103.843904,1.3356536,"143 lor 2 toa payoh, singapore 310143"
"285",285,"  Blk 461 Choa Chu Kang Avenue 4 Singapore","5-Room","Improved"," Built-1998","123 sqm / $398 psf(Built)","$528,000","Resale",103.7344602,1.3782503,"461 choa chu kang ave 4, block 461, singapore 680461"
"286",286,"  Blk 672A Klang Lane Singapore","5-Room","Improved"," Built-2002","105 sqm / $495 psf(Built)","$560,000","Resale",103.8524905,1.3085134,"672a klang ln, singapore 211672"
"287",287,"  Blk 671 Hougang Avenue 8 Singapore","3-Room","Model A"," Built-1987","74 sqm / $376 psf(Built)","$300,000","Resale",103.883815,1.373137,"671 hougang ave 8, block 671, singapore 530671"
"288",288,"  Blk 83 Redhill Lane Singapore","4-Room","Model A"," Built-1996","107 sqm / $664 psf(Built)","$765,000","Resale",103.8192741,1.2869491,"83 redhill ln, singapore 150083"
"289",289,"  Blk 530C Pasir Ris One Singapore","4-Room","Model A"," Built-2015","86 sqm / $701 psf(Built)","$650,000","Resale",103.9501566,1.3716643,"530c pasir ris dr 1, singapore 513530"
"290",290,"  Blk 51 New Upper Changi Road Singapore","4-Room","Improved"," Built-1977","84 sqm / $412 psf(Built)","$373,000","Resale",103.941309,1.323705,"51 new upper changi rd, singapore 461051"
"291",291,"  Blk 308A Punggol Walk Singapore","5-Room","Improved"," Built-2016","112 sqm / $647 psf(Built)","$780,000","Resale",103.9005963,1.4076123,"308a punggol walk, singapore 821308"
"292",292,"  Blk 213A Punggol Walk Singapore","5-Room","Standard"," Built-2015","113 sqm / $483 psf(Built)","$588,000","Resale",103.898282,1.400855,"213a punggol walk, singapore 828792"
"293",293,"  Blk 183C Boon Lay Avenue Singapore","4-Room","Model A"," Built-2015","92 sqm / $484 psf(Built)","$480,000","Resale",103.7092363,1.3485931,"183c boon lay ave, singapore 643183"
"294",294,"  Blk 807A Chai Chee Road Singapore","3-Room","Model A"," Built-2016","68 sqm / $710 psf(Built)","$520,000","Resale",103.9232433,1.3272024,"807a chai chee rd, singapore 461808"
"295",295,"  Blk 488D Choa Chu Kang Avenue 5 Singapore","5-Room","Improved"," Built-2016","113 sqm / $435 psf(Built)","$530,000","Resale",103.7406641,1.3764044,"488d choa chu kang ave 5, singapore 684485"
"296",296,"  Blk 9 MARSILING DRIVE Singapore","5-Room","Simplified"," Built-1976","120 sqm / $348 psf(Built)","$450,000","Resale",103.7764856,1.4412532,"9 marsiling dr, singapore 730009"
"297",297,"  Blk 698C Hougang Street 52 Singapore","HDB Executive","Multi Generation"," Built-1999","141 sqm / $434 psf(Built)","$660,000","Resale",103.8883456,1.3753812,"698c hougang street 52, block 698c, singapore 533698"
"298",298,"  Blk 308C Punggol Walk Singapore","4-Room","Model A"," Built-2016","92 sqm / $527 psf(Built)","$522,000","Resale",103.8991162,1.4080103,"308c punggol walk, singapore 823308"
"299",299,"  Blk 310B Punggol Walk Singapore","4-Room","Model A"," Built-2016","92 sqm / $575 psf(Built)","$570,000","Resale",103.9004061,1.4094207,"310b punggol walk, singapore 822310"
"300",300,"  Blk 258 Bishan Street 22 Singapore","HDB Executive","Maisonette"," Built-1992","155 sqm / $587 psf(Built)","$980,000","Resale",103.8426847,1.3598274,"258 bishan street 22, block 258, singapore 570258"
"301",301,"  Blk 470B Upper Serangoon Crescent Singapore","5-Room","Improved"," Built-2015","112 sqm / $512 psf(Built)","$618,000","Resale",103.9010178,1.3790529,"470b upper serangoon cres, singapore 532470"
"302",302,"  Blk 221 Bukit Batok East Avenue 3 Singapore","HDB Executive","Maisonette"," Built-1985","149 sqm / $373 psf(Built)","$599,000","Resale",103.7537655,1.3474582,"221 bukit batok east ave 3, block 221, singapore 650221"
"303",303,"  Blk 624A Punggol Central Singapore","4-Room","Model A"," Built-2014","95 sqm / $487 psf(Built)","$498,888","Resale",103.9114822,1.4010705,"624a punggol central, singapore 821624"
"304",304,"  Blk 117 Edgefield Plains Singapore","5-Room","Model A"," Built-2003","112 sqm / $402 psf(Built)","$485,000","Resale",103.9064393,1.3953168,"117 edgefield plains, singapore 820117"
"305",305,"  Blk 9 Jalan Kukoh Singapore","3-Room","Improved"," Built-1982","66 sqm / $659 psf(Built)","$468,000","Resale",103.838623,1.287701,"9 jln kukoh, singapore 160009"
"306",306,"  Blk 293C Compassvale Crescent Singapore","4-Room","Model A"," Built-2015","93 sqm / $484 psf(Built)","$485,000","Resale",103.8954154,1.3968247,"293c compassvale cres, singapore 543293"
"307",307,"  Blk 336 Ubi Avenue 1 Singapore","5-Room","Improved"," Built-1986","120 sqm / $406 psf(Built)","$525,000","Resale",103.9020287,1.3258088,"336 ubi ave 1, block 336, singapore 400336"
"308",308,"  Blk 644 Ang Mo Kio Avenue 4 Singapore","3-Room","Model A"," Built-1980","89 sqm / $385 psf(Built)","$369,000","Resale",103.8409287,1.379175,"644 ang mo kio ave 4, singapore 560644"
"309",309,"  Blk 86 Dawson Road Singapore","4-Room","Model A"," Built-2016","83 sqm / $918 psf(Built)","$820,000","Resale",103.8103377,1.2956741,"86 dawson rd, singapore 141086"
"310",310,"  Blk 91 Dawson Road Singapore","4-Room","Model A"," Built-2016","83 sqm / $1,005 psf(Built)","$898,000","Resale",103.8124286,1.2953426,"91 dawson rd, singapore 144091"
"311",311,"  Blk 475D Parkland Residences Singapore","4-Room","Model A"," Built-2014","92 sqm / $655 psf(Built)","$649,000","Resale",103.9002105,1.375868,"475a upper serangoon cres, singapore 531475"
"312",312,"  Blk 61A Strathmore Avenue Singapore","4-Room","Model A"," Built-2011","96 sqm / $762 psf(Built)","$788,000","Resale",103.8117546,1.2938744,"61a strathmore ave, singapore 142061"
"313",313,"  Blk 665B Punggol Drive Singapore","4-Room","Model A"," Built-2016","93 sqm / $549 psf(Built)","$550,000","Resale",103.9141966,1.4020488,"665b punggol dr, singapore 821669"
"314",314,"  Blk 31 Marine Crescent Singapore","3-Room","Improved"," Built-1975","65 sqm / $570 psf(Built)","$399,000","Resale",103.9114083,1.3037019,"31 marine cres, block 31, singapore 440031"
"315",315,"  Blk 56 Cassia Crescent Singapore","4-Room","Model A"," Built-1998","98 sqm / $663 psf(Built)","$699,000","Resale",103.8831333,1.3102916,"56 cassia cres, block 56, singapore 391056"
"316",316,"  Blk 708 Tampines Street 71 Singapore","5-Room","Improved"," Built-1997","119 sqm / $441 psf(Built)","$565,000","Resale",103.936767,1.358019,"708 tampines street 71, singapore 520708"
"317",317,"  Blk 308A Punggol Walk Singapore","4-Room","Model A"," Built-2015","92 sqm / $543 psf(Built)","$538,000","Resale",103.9005963,1.4076123,"308a punggol walk, singapore 821308"
"318",318,"  Blk 275A Jurong West Street 25 Singapore","4-Room","Model A"," Built-2002","90 sqm / $379 psf(Built)","$368,000","Resale",103.7021072,1.3524557,"275a jurong west street 25, block 275a, singapore 641275"
"319",319,"  Blk 526D Pasir Ris Street 51 Singapore","5-Room","Improved"," Built-2015","113 sqm / $534 psf(Built)","$650,000","Resale",103.9471975,1.3687977,"526d pasir ris street 51, singapore 514526"
"320",320,"  Blk 216 Serangoon Avenue 4 Singapore","5-Room","Improved"," Built-1985","121 sqm / $522 psf(Built)","$680,000","Resale",103.8731229,1.3575177,"216 serangoon ave 4, block 216, singapore 550216"
"321",321,"  Blk 216 Serangoon Avenue 4 Singapore","5-Room","Improved"," Built-1985","121 sqm / $522 psf(Built)","$680,000","Resale",103.8731229,1.3575177,"216 serangoon ave 4, block 216, singapore 550216"
"322",322,"  Blk 634A Senja Road Singapore","4-Room","Standard"," Built-2015","93 sqm / $449 psf(Built)","$450,000","Resale",103.7581214,1.385759,"634a senja rd, singapore 670629"
"323",323,"  Blk 139A The Peak @ Toa Payoh Singapore","5-Room","Improved"," Built-2012","110 sqm / $802 psf(Built)","$950,000","Resale",103.8446832,1.3366381,"128 lor 1 toa payoh, singapore 310128"
"324",324,"  Blk 808C Chai Chee Road Singapore","4-Room","New Generation"," Built-2015","88 sqm / $628 psf(Built)","$595,000","Resale",103.9233711,1.327395,"808c chai chee rd, singapore 463808"
"325",325,"  Blk 557 Choa Chu Kang North 6 Singapore","HDB Executive","Apartment"," Built-1996","146 sqm / $356 psf(Built)","$560,000","Resale",103.7441677,1.3954427,"557 choa chu kang north 6, block 557, singapore 680557"
"326",326,"  Blk 308A Punggol Walk Singapore","5-Room","Improved"," Built-2016","112 sqm / $579 psf(Built)","$699,000","Resale",103.9005963,1.4076123,"308a punggol walk, singapore 821308"
"327",327,"  Blk 506 Pasir Ris Street 52 Singapore","HDB Executive","Apartment"," Built-1993","145 sqm / $466 psf(Built)","$728,000","Resale",103.9447859,1.3770049,"506 pasir ris street 52, block 506, singapore 510506"
"328",328,"  Blk 767 Bedok Reservoir View Singapore","5-Room","Model A"," Built-2000","115 sqm / $483 psf(Built)","$599,000","Resale",103.9367182,1.3359559,"767 bedok reservoir view, singapore 470767"
"329",329,"  Blk 9 Jalan Kukoh Singapore","3-Room","Improved"," Built-1982","66 sqm / $659 psf(Built)","$468,000","Resale",103.838623,1.287701,"9 jln kukoh, singapore 160009"
"330",330,"  Blk 4 Queens Road Singapore","3-Room","Improved"," Built-1974","73 sqm / $545 psf(Built)","$428,888","Resale",103.8083359,1.3191525,"4 queen's rd, singapore 260004"
"331",331,"  Blk 58 Strathmore Avenue Singapore","4-Room","Model A"," Built-2000","85 sqm / $795 psf(Built)","$728,000","Resale",103.8106905,1.2932038,"58 strathmore ave, block 58, singapore 142058"
"332",332,"  Blk 6 Marine Terrace Singapore","3-Room","Improved"," Built-1975","65 sqm / $657 psf(Built)","$460,000","Resale",103.9164382,1.3038564,"6 marine terrace, block 6, singapore 440006"
"333",333,"  Blk 216B Compassvale Drive Singapore","4-Room","Model A"," Built-2016","92 sqm / $656 psf(Built)","$650,000","Resale",103.8937873,1.3906178,"216b compassvale dr, singapore 542216"
"334",334,"  Blk 364 Clementi Avenue 2 Singapore","3-Room","New Generation(modified)"," Built-1978","67 sqm / $443 psf(Built)","$320,000","Resale",103.7687902,1.3123679,"364 clementi ave 2, block 364, singapore 120364"
"335",335,"  Blk 649 Pasir Ris Drive 10 Singapore","HDB Executive","Apartment"," Built-1995","145 sqm / $408 psf(Built)","$638,000","Resale",103.9383953,1.378508,"649 pasir ris drive 10, block 649, singapore 510649"
"336",336,"  Blk 468C Fernvale Link Singapore","5-Room","Improved"," Built-2016","113 sqm / $489 psf(Built)","$595,000","Resale",103.8776721,1.3967331,"468c fernvale link, singapore 793468"
"337",337,"  Blk 139A The Peak @ Toa Payoh Singapore","5-Room","Improved"," Built-2012","110 sqm / $802 psf(Built)","$950,000","Resale",103.8446832,1.3366381,"128 lor 1 toa payoh, singapore 310128"
"338",338,"  Blk 2 Dover Road Singapore","3-Room","Improved"," Built-2020","65 sqm / $407 psf(Built)","$285,000","Resale",103.782884,1.303137,"2 dover rd, singapore 130002"
"339",339,"  Blk 946 Tampines Avenue 4 Singapore","5-Room","Improved"," Built-1988","122 sqm / $495 psf(Built)","$650,000","Resale",103.9397879,1.3514,"946 tampines ave 4, singapore 520946"
"340",340,"  Blk 105 Bishan Street 12 Singapore","4-Room","Model A"," Built-1985","105 sqm / $601 psf(Built)","$680,000","Resale",103.8473951,1.3458125,"105 bishan street 12, block 105, singapore 570105"
"341",341,"  Blk 266C Punggol Way Singapore","4-Room","Model A"," Built-2015","92 sqm / $484 psf(Built)","$480,000","Resale",103.8977016,1.4050971,"266 c punggol way, singapore 820268"
"342",342,"  Blk 332C Anchorvale Link Singapore","5-Room","Model A"," Built-2015","112 sqm / $497 psf(Built)","$600,000","Resale",103.8914065,1.3951513,"332c anchorvale link, blk 332b, singapore 543332"
"343",343,"  Blk 21 Bedok South Road Singapore","5-Room","Standard"," Built-1976","117 sqm / $515 psf(Built)","$649,000","Resale",103.9332045,1.3200054,"21 bedok s rd, block 21, singapore 460021"
"344",344,"  Blk 8 Marine Terrace Singapore","3-Room","Improved(modified)"," Built-1975","65 sqm / $557 psf(Built)","$390,000","Resale",103.9160757,1.3045165,"8 marine terrace, block 8, singapore 440008"
"345",345,"  Blk 93 Dawson Road Singapore","4-Room","Na"," Built-2016","87 sqm / $918 psf(Built)","$860,000","Resale",103.8116287,1.294954,"93 dawson rd, singapore 141092"
"346",346,"  Blk 415B Fernvale Link Singapore","5-Room","Improved"," Built-2016","113 sqm / $434 psf(Built)","$528,000","Resale",103.8801605,1.389669,"415b fernvale link, singapore 791415"
"347",347,"  Blk 271B Sengkang Central Singapore","4-Room","Model A"," Built-2010","93 sqm / $547 psf(Built)","$548,000","Resale",103.8945073,1.385602,"271b sengkang central, singapore 542271"
"348",348,"  Blk 93 Dawson Road Singapore","4-Room","Model A"," Built-2015","83 sqm / $938 psf(Built)","$838,000","Resale",103.8116287,1.294954,"93 dawson rd, singapore 141092"
"349",349,"  Blk 64 New Upper Changi Road Singapore","4-Room","New Generation"," Built-1977","92 sqm / $401 psf(Built)","$397,000","Resale",103.9399081,1.3242773,"64 new upper changi rd, block 64, singapore 460064"
"350",350,"  Blk 36 Cassia Crescent Singapore","3-Room","Improved"," Built-1986","59 sqm / $611 psf(Built)","$388,000","Resale",103.8851727,1.3098859,"36 cassia cres, block 36, singapore 390036"
"351",351,"  Blk 12 Jalan Bukit Merah Singapore","4-Room","Model A"," Built-1996","103 sqm / $521 psf(Built)","$578,000","Resale",103.8070691,1.2874551,"12 jalan bukit merah, singapore 150012"
"352",352,"  Blk 807C Chai Chee Road Singapore","5-Room","Model A"," Built-2015","113 sqm / $657 psf(Built)","$800,000","Resale",103.923325,1.328094,"807c chai chee rd, singapore 463807"
"353",353,"  Blk 199A Punggol Field Singapore","5-Room","Improved"," Built-2003","110 sqm / $388 psf(Built)","$460,000","Resale",103.9059769,1.399726,"199a punggol field, singapore 821199"
"354",354,"  Blk 346 Tampines Street 33 Singapore","4-Room","Model A"," Built-1996","107 sqm / $373 psf(Built)","$430,000","Resale",103.9623957,1.3510724,"346 tampines street 33, block 346, singapore 520346"
"355",355,"  Blk 539 Ang Mo Kio Avenue 10 Singapore","5-Room","Improved"," Built-1980","118 sqm / $405 psf(Built)","$515,000","Resale",103.8543703,1.375436,"539 ang mo kio ave 10, block 539, singapore 560539"
"356",356,"  Blk 63A Lengkok Bahru Singapore","4-Room","Standard"," Built-2001","94 sqm / $750 psf(Built)","$760,000","Resale",103.8153318,1.2897957,"63a lengkok bahru, block 63a, singapore 151063"
"357",357,"  Blk 6B Boon Tiong Road Singapore","4-Room","Model A"," Built-2005","100 sqm / $835 psf(Built)","$899,000","Resale",103.8309096,1.2866383,"6b boon tiong rd, block 6b, singapore 165006"
"358",358,"  Blk 10 Teck Whye Avenue Singapore","3-Room","New Generation"," Built-1978","67 sqm / $388 psf(Built)","$280,000","Resale",103.7554147,1.380253,"10 teck whye ave, block 10, singapore 680010"
"359",359,"  Blk 132 Clarence Lane Singapore","5-Room","Improved"," Built-1996","125 sqm / $707 psf(Built)","$951,000","Resale",103.8149469,1.2921929,"132 clarence ln, block 132, singapore 140132"
"360",360,"  Blk 503 Jelapang Road Singapore","HDB Executive","Maisonette"," Built-1998","145 sqm / $473 psf(Built)","$738,888","Resale",103.7664364,1.3845315,"503 jelapang rd, block 503, singapore 670503"
"361",361,"  Blk 270 Tampines Street 21 Singapore","4-Room","Model A"," Built-1984","105 sqm / $384 psf(Built)","$435,000","Resale",103.9488878,1.3499804,"270 tampines street 21, block 270, singapore 520270"
"362",362,"  Blk 331 Tah Ching Road Singapore","HDB Executive","Apartment"," Built-1996","139 sqm / $433 psf(Built)","$648,000","Resale",103.7235083,1.3380879,"331 tah ching rd, block 331, singapore 611331"
"363",363,"  Blk 92 Dawson Road Singapore","4-Room","Na"," Built-2016","97 sqm / $862 psf(Built)","$900,000","Resale",103.8114169,1.2950444,"92 dawson rd, singapore 141092"
"364",364,"  Blk 336D Anchorvale Crescent Singapore","5-Room","Model A"," Built-2015","111 sqm / $481 psf(Built)","$575,000","Resale",103.8882097,1.3979889,"anchorvale cres, singapore 544336"
"365",365,"  Blk 60 Lorong 4 Toa Payoh Singapore","5-Room","Improved"," Built-1999","120 sqm / $665 psf(Built)","$860,000","Resale",103.8506971,1.3363887,"60 lor 4 toa payoh, block 60, singapore 310060"
"366",366,"  Blk 108B Mcnair Road Singapore","5-Room","Standard"," Built-2004","110 sqm / $648 psf(Built)","$768,000","Resale",103.8590612,1.32016,"108b mcnair rd, singapore 323108"
"367",367,"  Blk 415B Fernvale Link Singapore","5-Room","Improved"," Built-2016","112 sqm / $437 psf(Built)","$528,000","Resale",103.8801605,1.389669,"415b fernvale link, singapore 791415"
"368",368,"  Blk 515B The Premiere @ Tampines Singapore","5-Room","Improved"," Built-2008","109 sqm / $673 psf(Built)","$790,000","Resale",103.9388706,1.3566593,"515 tampines central 7, singapore 524515"
"369",369,"  Blk 310B Punggol Walk Singapore","4-Room","Model A"," Built-2015","92 sqm / $563 psf(Built)","$558,000","Resale",103.9004061,1.4094207,"310b punggol walk, singapore 822310"
"370",370,"  Blk 298C Compassvale Street Singapore","HDB Executive","Apartment"," Built-2001","134 sqm / $429 psf(Built)","$620,000","Resale",103.9014441,1.3964075,"298c compassvale st, singapore 543298"
"371",371,"  Blk 54 Cassia Crescent Singapore","4-Room","New Generation"," Built-1983","92 sqm / $694 psf(Built)","$599,000","Resale",103.8846305,1.310106,"54 cassia cres, block 54, singapore 390054"
"372",372,"  Blk 553 Pasir Ris Street 51 Singapore","5-Room","Improved"," Built-1992","122 sqm / $456 psf(Built)","$680,000","Resale",103.9526953,1.3680413,"553 pasir ris street 51, block 553, singapore 510553"
"373",373,"  Blk 131B Kim Tian Road Singapore","4-Room","Model A"," Built-2002","91 sqm / $693 psf(Built)","$628,000","Resale",103.8282723,1.2809123,"131b kim tian rd, singapore 162131"
"374",374,"  Blk 808C Chai Chee Road Singapore","4-Room","Model A"," Built-2016","88 sqm / $663 psf(Built)","$760,000","Resale",103.9233711,1.327395,"808c chai chee rd, singapore 463808"
"375",375,"  Blk 63A Lengkok Bahru Singapore","4-Room","Standard"," Built-2001","94 sqm / $750 psf(Built)","$518,000","Resale",103.8153318,1.2897957,"63a lengkok bahru, block 63a, singapore 151063"
"376",376,"  Blk 268 Bishan Street 24 Singapore","4-Room","Model A"," Built-1992","102 sqm / $471 psf(Built)","$500,000","Resale",103.8425941,1.3577038,"268 bishan street 24, block 268, singapore 570268"
"377",377,"  Blk 487 Pasir Ris Drive 4 Singapore","5-Room","Improved"," Built-1992","122 sqm / $380 psf(Built)","$850,000","Resale",103.9605371,1.3744025,"487 pasir ris drive 4, block 487, singapore 510487"
"378",378,"  Blk 59C Geylang Bahru Singapore","5-Room","Model A"," Built-1998","120 sqm / $657 psf(Built)","$899,000","Resale",103.868413,1.3222149,"59c geylang bahru, singapore 332059"
"379",379,"  Blk 6B Boon Tiong Road Singapore","4-Room","Model A"," Built-2005","100 sqm / $835 psf(Built)","$526,000","Resale",103.8309096,1.2866383,"6b boon tiong rd, block 6b, singapore 165006"
"380",380,"  Blk 627 Senja Road Singapore","5-Room","Premium Apartment"," Built-2004","110 sqm / $444 psf(Built)",NA,"Resale",103.7591582,1.3856183,"627 senja rd, block 627, singapore 670627"
"381",381,"  Blk 672A Klang Lane Singapore","5-Room","Improved"," Built-2002","105 sqm / $495 psf(Built)","$560,000","Resale",103.8524905,1.3085134,"672a klang ln, singapore 211672"
"382",382,"  Blk 490D Choa Chu Kang Avenue 5 Singapore","4-Room","Model A"," Built-2016","93 sqm / $467 psf(Built)","$468,000","Resale",103.7411025,1.37613,"490d choa chu kang ave 5, singapore 684490"
"383",383,"  Blk 556 Ang Mo Kio Avenue 10 Singapore","4-Room","New Generation"," Built-1980","92 sqm / $442 psf(Built)","$438,000","Resale",103.8577221,1.3720459,"556 ang mo kio ave 10, singapore 560556"
"384",384,"  Blk 666B Punggol Drive Singapore","5-Room","Improved"," Built-2016","113 sqm / $592 psf(Built)","$720,000","Resale",103.9153018,1.4019207,"666b punggol dr, singapore 822666"
"385",385,"  Blk 298A Compassvale Street Singapore","HDB Executive","Executive Apartment"," Built-2001","133 sqm / $438 psf(Built)","$628,000","Resale",103.9016662,1.3952325,"298a compassvale st, singapore 541298"
"386",386,"  Blk 518A The Premiere @ Tampines Singapore","4-Room","Model A"," Built-2008","92 sqm / $634 psf(Built)","$628,000","Resale",103.9388706,1.3566593,"515 tampines central 7, singapore 524515"
"387",387,"  Blk 128 Pasir Ris Street 11 Singapore","HDB Executive","Maisonette"," Built-1988","146 sqm / $424 psf(Built)","$668,000","Resale",103.9553243,1.3661951,"128 pasir ris street 11, block 128, singapore 510128"
"388",388,"  Blk 308B Punggol Walk Singapore","5-Room","Improved"," Built-2016","112 sqm / $567 psf(Built)","$685,000","Resale",103.8998529,1.4076815,"308b punggol walk, singapore 822308"
"389",389,"  Blk 853 Tampines Street 83 Singapore","4-Room","Model A"," Built-1987","105 sqm / $367 psf(Built)","$415,000","Resale",103.9350188,1.3532825,"853 tampines street 83, block 853, singapore 520853"
"390",390,"  Blk 117 Clementi Street 13 Singapore","4-Room","Model A"," Built-1984","104 sqm / $509 psf(Built)","$570,000","Resale",103.7715062,1.3245029,"117 clementi street 13, block 117, singapore 120117"
"391",391,"  Blk 843 Tampines Street 83 Singapore","4-Room","Simplified"," Built-1988","84 sqm / $440 psf(Built)","$398,000","Resale",103.9350188,1.3517452,"843 tampines street 83, block 843, singapore 520843"
"392",392,"  Blk 663A Punggol Drive Singapore","5-Room","Improved"," Built-2016","110 sqm / $489 psf(Built)","$579,999","Resale",103.9176164,1.4004133,"663a punggol dr, singapore 821663"
"393",393,"  Blk 167 Bishan Street 13 Singapore","4-Room","Model A"," Built-1988","104 sqm / $445 psf(Built)","$499,000","Resale",103.8555479,1.3479618,"167 bishan street 13, block 167, singapore 570167"
"394",394,"  Blk 120 Kim Tian Place Singapore","4-Room","Model A"," Built-2001","101 sqm / $754 psf(Built)","$820,000","Resale",103.8279207,1.2829258,"120 kim tian pl, block 120, singapore 160120"
"395",395,"  Blk 59 Marine Terrace Singapore","3-Room","Improved"," Built-1975","65 sqm / $585 psf(Built)","$410,000","Resale",103.9144897,1.3058783,"59 marine terrace, block 59, singapore 440059"
"396",396,"  Blk 258A Compassvale Road Singapore","5-Room","Improved"," Built-2001","110 sqm / $420 psf(Built)","$498,000","Resale",103.8969478,1.3931721,"258a compassvale rd, singapore 541258"
"397",397,"  Blk 131B Kim Tian Road Singapore","5-Room","Improved"," Built-2002","110 sqm / $707 psf(Built)","$838,000","Resale",103.8282723,1.2809123,"131b kim tian rd, singapore 162131"
"398",398,"  Blk 710 Bedok Reservoir Road Singapore","5-Room","Improved"," Built-1980","120 sqm / $352 psf(Built)","$455,000","Resale",103.9237795,1.3356353,"710 bedok reservoir rd, block 710, singapore 470710"
"399",399,"  Blk 151 Tampines Street 12 Singapore","HDB Executive","Maisonette"," Built-1984","150 sqm / $526 psf(Built)","$850,000","Resale",103.9439021,1.3514004,"151 tampines street 12, block 151, singapore 521151"
"400",400,"  Blk 633 Ang Mo Kio Avenue 6 Singapore","3-Room","New Generation"," Built-1985","93 sqm / $399 psf(Built)","$400,000","Resale",103.8423224,1.381223,"633 ang mo kio ave 6, block 633, singapore 560633"
"401",401,"  Blk 211C Compassvale Lane Singapore","4-Room","Model A"," Built-2011","93 sqm / $434 psf(Built)","$435,000","Resale",103.8992953,1.3851892,"211c compassvale ln, singapore 543211"
"402",402,"  Blk 308A Punggol Walk Singapore","5-Room","Model A"," Built-2016","112 sqm / $597 psf(Built)","$720,000","Resale",103.9005963,1.4076123,"308a punggol walk, singapore 821308"
"403",403,"  Blk 603 Bedok Reservoir Road Singapore","5-Room","Improved"," Built-1982","120 sqm / $348 psf(Built)","$450,000","Resale",103.9123599,1.3299934,"603 bedok reservoir rd, block 603, singapore 470603"
"404",404,"  Blk 475B Parkland Residences Singapore","5-Room","Improved"," Built-2014","109 sqm / $639 psf(Built)","$750,000","Resale",103.9002105,1.375868,"475a upper serangoon cres, singapore 531475"
"405",405,"  Blk 153A Lorong 1 Toa Payoh Singapore","5-Room","Improved"," Built-1999","121 sqm / $652 psf(Built)","$850,000","Resale",103.8452663,1.3337818,"153a lor 1 toa payoh, block 153a, singapore 311153"
"406",406,"  Blk 269C Compassvale Link Singapore","4-Room","Standard"," Built-2006","91 sqm / $518 psf(Built)","$508,000","Resale",103.896391,1.383502,"269c compassvale link, singapore 543269"
"407",407,"  Blk 329 Jurong East Avenue 1 Singapore","4-Room","Model A"," Built-1983","104 sqm / $402 psf(Built)","$450,000","Resale",103.7298929,1.3501778,"329 jurong east ave 1, block 329, singapore 600329"
"408",408,"  Blk 220 Pasir Ris Street 21 Singapore","HDB Executive","Apartment"," Built-1993","152 sqm / $366 psf(Built)","$598,888","Resale",103.9615797,1.3698193,"220 pasir ris street 21, block 220, singapore 510220"
"409",409,"  Blk 240 Tampines Street 21 Singapore","3-Room","New Generation"," Built-1984","74 sqm / $489 psf(Built)","$390,000","Resale",103.9471854,1.3549408,"240 tampines street 21, singapore 520240"
"410",410,"  Blk 440B Fernvale Link Singapore","5-Room","Improved"," Built-2015","113 sqm / $439 psf(Built)","$535,000","Resale",103.8781745,1.3935128,"440b fernvale link, singapore 797440"
"411",411,"  Blk 350C Canberra Road Singapore","5-Room","Improved"," Built-2001","113 sqm / $370 psf(Built)","$450,000","Resale",103.8203808,1.4498826,"350c canberra rd, block 350c, singapore 753350"
"412",412,"  Blk 103 Bedok Reservoir Road Singapore","4-Room","New Generation"," Built-1985","91 sqm / $397 psf(Built)","$390,000","Resale",103.9094598,1.3287662,"103 bedok reservoir rd, block 103, singapore 470103"
"413",413,"  Blk 357 Clementi Avenue 2 Singapore","5-Room","Improved"," Built-1978","117 sqm / $474 psf(Built)","$598,000","Resale",103.7690618,1.3141228,"357 clementi ave 2, block 357, singapore 120357"
"414",414,"  Blk 549B Segar Road Singapore","4-Room","Improved"," Built-2015","113 sqm / $451 psf(Built)","$548,888","Resale",103.7691506,1.3895051,"549b segar rd, singapore"
"415",415,"  Blk 12 Farrer Park Road Singapore","3-Room","Model A"," Built-2004","62 sqm / $779 psf(Built)","$520,000","Resale",103.8518338,1.3121932,"12 farrer park rd, block 12, singapore 210012"
"416",416,"  Blk 86 Dawson Road Singapore","4-Room","Model A"," Built-2016","83 sqm / $1,047 psf(Built)","$935,000","Resale",103.8103377,1.2956741,"86 dawson rd, singapore 141086"
"417",417,"  Blk 267 Toh Guan Road Singapore","5-Room","Improved"," Built-1998","121 sqm / $474 psf(Built)","$618,000","Resale",103.7447108,1.3410576,"267 toh guan rd, block 267, singapore 600267"
"418",418,"  Blk 194 Bishan Street 13 Singapore","5-Room","Improved"," Built-1987","121 sqm / $691 psf(Built)","$900,000","Resale",103.8513808,1.3482789,"194 bishan street 13, block 194, singapore 570194"
"419",419,"  Blk 91 Dawson Road Singapore","4-Room","Model A"," Built-2016","83 sqm / $894 psf(Built)","$799,000","Resale",103.8124286,1.2953426,"91 dawson rd, singapore 144091"
"420",420,"  Blk 91 Dawson Road Singapore","4-Room","Model A"," Built-2015","83 sqm / $923 psf(Built)","$825,000","Resale",103.8124286,1.2953426,"91 dawson rd, singapore 144091"
"421",421,"  Blk 80A Lorong 4 Toa Payoh Singapore","5-Room","Improved"," Built-1997","124 sqm / $620 psf(Built)","$829,000","Resale",103.8492114,1.3353276,"80a lor 4 toa payoh, block 80a, singapore 311080"
"422",422,"  Blk 747B Belvia Singapore","4-Room","Improved"," Built-2019","86 sqm / $750 psf(Built)","$695,000","Resale",103.9213614,1.3365339,"747a bedok reservoir cres, singapore 471747"
"423",423,"  Blk 57 Teban Gardens Road Singapore","3-Room","Model A"," Built-2016","67 sqm / $540 psf(Built)","$390,000","Resale",103.7372044,1.3226978,"57a teban gardens rd, singapore 601057"
"424",424,"  Blk 487B Tampines Street 45 Singapore","4-Room","Model A"," Built-1989","105 sqm / $371 psf(Built)","$420,000","Resale",103.958264,1.359985,"487b tampines street 45, singapore 521487"
"425",425,"  Blk 12 Dover Close East Singapore","5-Room","Simplified"," Built-1977","117 sqm / $651 psf(Built)","$820,000","Resale",103.785545,1.3050409,"12 dover cl e, singapore 130012"
"426",426,"  Blk 146 Tampines Avenue 5 Singapore","HDB Executive","Maisonette"," Built-1985","150 sqm / $488 psf(Built)","$788,888","Resale",103.9423611,1.3481155,"146 tampines ave 5, block 146, singapore 521146"
"427",427,"  Blk 288A Bukit Batok Street 25 Singapore","HDB Executive","Executive Apartment"," Built-1997","144 sqm / $534 psf(Built)","$828,000","Resale",103.7606448,1.3452213,"288a bukit batok street 25, block 288a, singapore 650288"
"428",428,"  Blk 10 Jalan Batu Singapore","5-Room","Model A"," Built-1986","131 sqm / $544 psf(Built)","$768,000","Resale",103.882909,1.3020705,"10 jln batu, block 10, singapore 431010"
"429",429,"  Blk 506 Pasir Ris Street 52 Singapore","HDB Executive","Apartment"," Built-1993","145 sqm / $466 psf(Built)","$728,000","Resale",103.9447859,1.3770049,"506 pasir ris street 52, block 506, singapore 510506"
"430",430,"  Blk 522A  Tampines Central 7 Singapore","4-Room","Model A"," Built-2015","93 sqm / $549 psf(Built)","$550,000","Resale",103.9384669,1.3577782,"522a tampines central 7, singapore 528597"
"431",431,"  Blk 90 Bedok North Street 4 Singapore","5-Room","Model A"," Built-1978","117 sqm / $395 psf(Built)","$498,000","Resale",103.9403668,1.3321736,"90 bedok north street 4, block 90, singapore 460090"
"432",432,"  Blk 120C Rivervale Drive Singapore","HDB Executive","Apartment"," Built-2001","142 sqm / $412 psf(Built)","$630,000","Resale",103.904015,1.385129,"120c rivervale dr, singapore 543120"
"433",433,"  Blk 473A Upper Serangoon Crescent Singapore","5-Room","Improved"," Built-2016","112 sqm / $497 psf(Built)","$600,000","Resale",103.9003069,1.3767753,"473a upper serangoon cres, singapore 531473"
"434",434,"  Blk 486 Segar Road Singapore","4-Room","Na"," Built-2014","93 sqm / $419 psf(Built)","$420,000","Resale",103.7717511,1.3889813,"486 segar rd, singapore 670486"
"435",435,"  Blk 128 Bedok Reservoir Road Singapore","4-Room","Simplified"," Built-1986","84 sqm / $436 psf(Built)","$395,000","Resale",103.9114536,1.3334379,"128 bedok reservoir rd, block 128, singapore 470128"
"436",436,"  Blk 602B Punggol Central Singapore","4-Room","Model A"," Built-2012","93 sqm / $399 psf(Built)","$400,000","Resale",103.9067215,1.4030407,"602b punggol central, singapore 822602"
"437",437,"  Blk 6 Marine Terrace Singapore","3-Room","Improved"," Built-1975","65 sqm / $657 psf(Built)","$460,000","Resale",103.9164382,1.3038564,"6 marine terrace, block 6, singapore 440006"
"438",438,"  Blk 518 Pasir Ris Street 52 Singapore","5-Room","Improved"," Built-1993","129 sqm / $437 psf(Built)","$608,000","Resale",103.9444686,1.3744799,"518 pasir ris street 52, block 518, singapore 510518"
"439",439,"  Blk 173C Punggol Field Singapore","4-Room","New Generation"," Built-2003","90 sqm / $464 psf(Built)","$450,000","Resale",103.9106273,1.3962603,"173c punggol field, singapore 823173"
"440",440,"  Blk 771 Bedok Reservoir View Singapore","5-Room","Improved"," Built-2000","115 sqm / $508 psf(Built)","$630,000","Resale",103.9387805,1.3360242,"771 bedok reservoir view, block 771, singapore 470771"
"441",441,"  Blk 641 Rowell Road Singapore","5-Room","Model A"," Built-1983","137 sqm / $575 psf(Built)","$849,000","Resale",103.8550777,1.3083007,"641 rowell rd, singapore 200641"
"442",442,"  Blk 17 Marine Terrace Singapore","4-Room","Standard"," Built-1975","82 sqm / $560 psf(Built)","$495,000","Resale",103.9141725,1.3037229,"17 marine terrace, block 17, singapore 440017"
"443",443,"  Blk 105A Edgefield Plains Singapore","5-Room","Improved"," Built-2003","110 sqm / $401 psf(Built)","$475,000","Resale",103.9058262,1.3971031,"105a edgefield plains, singapore 821105"
"444",444,"  Blk 618B Punggol Drive Singapore","5-Room","Model A"," Built-2013","118 sqm / $508 psf(Built)","$646,000","Resale",103.912106,1.401454,"618b punggol dr, singapore 822618"
"445",445,"  Blk 663A Punggol Drive Singapore","5-Room","Improved"," Built-2015","110 sqm / $489 psf(Built)","$579,999","Resale",103.9176164,1.4004133,"663a punggol dr, singapore 821663"
"446",446,"  Blk 224 Serangoon Avenue 4 Singapore","4-Room","New Generation"," Built-1984","92 sqm / $464 psf(Built)","$460,000","Resale",103.8707693,1.3572417,"224 serangoon ave 4, block 224, singapore 550224"
"447",447,"  Blk 58 Dakota Crescent Singapore","4-Room","Model A"," Built-1984","102 sqm / $637 psf(Built)","$700,000","Resale",103.8895235,1.3073722,"58 dakota cres, block 58, singapore 390058"
"448",448,"  Blk 406 Tampines Street 41 Singapore","3-Room","Simplified"," Built-1986","64 sqm / $490 psf(Built)","$338,000","Resale",103.945919,1.3581418,"406 tampines street 41, block 406, singapore 520406"
"449",449,"  Blk 271 Bishan Street 24 Singapore","4-Room","Model A"," Built-1992","104 sqm / $552 psf(Built)","$618,000","Resale",103.8428659,1.3562374,"271 bishan street 24, block 271, singapore 570271"
"450",450,"  Blk 87 Dawson Road Singapore","3-Room","Model A"," Built-2016","64 sqm / $1,056 psf(Built)","$728,000","Resale",103.8099048,1.2960052,"87 dawson rd, singapore 141087"
"451",451,"  Blk 145 Serangoon North Avenue 1 Singapore","5-Room","Improved"," Built-1986","122 sqm / $357 psf(Built)","$470,000","Resale",103.8723981,1.3679231,"145 serangoon north ave 1, block 145, singapore 550145"
"452",452,"  Blk 60 Dakota Crescent Singapore","4-Room","Model A"," Built-1983","111 sqm / $670 psf(Built)","$799,999","Resale",103.8882441,1.3071687,"60 dakota cres, singapore 390060"
"453",453,"  Blk 58 Strathmore Avenue Singapore","4-Room","Model A"," Built-2000","85 sqm / $795 psf(Built)","$728,000","Resale",103.8106905,1.2932038,"58 strathmore ave, block 58, singapore 142058"
"454",454,"  Blk 676B Punggol Drive Singapore","5-Room","Improved"," Built-2015","113 sqm / $542 psf(Built)","$660,000","Resale",103.9103467,1.4050168,"676b punggol dr, singapore 822676"
"455",455,"  Blk 13 Toh Yi Drive Singapore","5-Room","Model A"," Built-1988","128 sqm / $653 psf(Built)","$900,000","Resale",103.7725926,1.3387009,"13 toh yi dr, block 13, singapore 590013"
"456",456,"  Blk 383 Bukit Batok West Avenue 5 Singapore","5-Room","Improved"," Built-2005","118 sqm / $496 psf(Built)","$630,000","Resale",103.7521786,1.3622966,"383 bukit batok west ave 5, block 383, singapore 650383"
"457",457,"  Blk 39 Upper Boon Keng Road Singapore","5-Room","Improved"," Built-1976","114 sqm / $427 psf(Built)","$525,000","Resale",103.874187,1.318769,"39 upper boon keng rd, singapore 380039"
"458",458,"  Blk 286B Toh Guan Road Singapore","HDB Executive","Apartment"," Built-1998","143 sqm / $528 psf(Built)","$813,000","Resale",103.7452539,1.3386375,"286b toh guan rd, block 286b, singapore 602286"
"459",459,"  Blk 404 Sin Ming Avenue Singapore","HDB Executive","Maisonette"," Built-1986","149 sqm / $579 psf(Built)","$930,000","Resale",103.833902,1.362625,"404 sin ming ave, singapore 570404"
"460",460,"  Blk 668B Edgefield Plains Singapore","5-Room","Premium Apartment"," Built-2016","113 sqm / $546 psf(Built)","$665,000","Resale",103.9130631,1.4048962,"668b edgefield plains, singapore 822668"
"461",461,"  Blk 311B Trivelis Singapore","4-Room","Model A"," Built-2014","82 sqm / $869 psf(Built)","$768,000","Resale",103.7655694,1.3191667,"311a clementi ave 4, singapore 121311"
"462",462,"  Blk 2C Geylang Serai Singapore","4-Room","Model A"," Built-2011","95 sqm / $674 psf(Built)","$690,000","Resale",103.898082,1.317465,"2c geylang serai, singapore 405002"
"463",463,"  Blk 308C Punggol Walk Singapore","3-Room","Model A"," Built-2016","67 sqm / $581 psf(Built)","$419,000","Resale",103.8991162,1.4080103,"308c punggol walk, singapore 823308"
"464",464,"  Blk 91 Dawson Road Singapore","4-Room","Model A"," Built-2015","83 sqm / $923 psf(Built)","$825,000","Resale",103.8124286,1.2953426,"91 dawson rd, singapore 144091"
"465",465,"  Blk 93A Telok Blangah Street 31 Singapore","4-Room","Model A"," Built-2017","92 sqm / $909 psf(Built)","$900,000","Resale",103.8070937,1.2752967,"93a telok blangah street 31, singapore 101093"
"466",466,"  Blk 637A Punggol Drive Singapore","5-Room","Improved"," Built-2005","111 sqm / $418 psf(Built)","$500,000","Resale",103.9145446,1.3995632,"637a punggol dr, singapore 821637"
"467",467,"  Blk 747B Belvia Singapore","4-Room","Improved"," Built-2019","86 sqm / $750 psf(Built)","$695,000","Resale",103.9213614,1.3365339,"747a bedok reservoir cres, singapore 471747"
"468",468,"  Blk 61A Strathmore Avenue Singapore","4-Room","Model A"," Built-2011","96 sqm / $762 psf(Built)","$788,000","Resale",103.8117546,1.2938744,"61a strathmore ave, singapore 142061"
"469",469,"  Blk 30 Cassia Crescent Singapore","4-Room","Model A"," Built-1998","103 sqm / $676 psf(Built)","$750,000","Resale",103.883362,1.309528,"30 cassia cres, block 30, singapore 391030"
"470",470,"  Blk 280 Toh Guan Road Singapore","4-Room","Model A"," Built-1998","90 sqm / $505 psf(Built)","$490,000","Resale",103.7474037,1.3403647,"280 toh guan rd, block 280, singapore 600280"
"471",471,"  Blk 698C Hougang Street 52 Singapore","HDB Executive","Multi Generation"," Built-1999","141 sqm / $434 psf(Built)","$660,000","Resale",103.8883456,1.3753812,"698c hougang street 52, block 698c, singapore 533698"
"472",472,"  Blk 109 Bishan Street 12 Singapore","4-Room","Simplified"," Built-1985","84 sqm / $641 psf(Built)","$580,000","Resale",103.8479386,1.3467612,"109 bishan street 12, block 109, singapore 570109"
"473",473,"  Blk 5 Ghim Moh Road Singapore","3-Room","Na"," Built-1976","65 sqm / $492 psf(Built)","$345,000","Resale",103.7883466,1.312624,"5 ghim moh rd, block 5, singapore 270005"
"474",474,"  Blk 472 Tampines Street 44 Singapore","Multi-Gen/Jumbo","Jumbo"," Built-1993","","$858,000","Resale",103.9535112,1.3598359,"472 tampines street 44, singapore 520472"
"475",475,"  Blk 135 Lorong Ah Soo Singapore","4-Room","Model A"," Built-1984","106 sqm / $410 psf(Built)","$468,000","Resale",103.8867146,1.3501237,"135 lor ah soo, block 135, singapore 530135"
"476",476,"  Blk 154 Lorong 2 Toa Payoh Singapore","4-Room","Model A"," Built-2001","101 sqm / $722 psf(Built)","$785,000","Resale",103.8461676,1.3333428,"154 lor 2 toa payoh, block 154, singapore 310154"
"477",477,"  Blk 301 Shunfu Road Singapore","HDB Executive","Maisonette"," Built-1985","148 sqm / $677 psf(Built)","$1,080,000","Resale",103.8382496,1.3493864,"301 shunfu rd, block 301, singapore 570301"
"478",478,"  Blk 15 Ghim Moh Road Singapore","4-Room","Improved"," Built-1977","82 sqm / $554 psf(Built)","$489,000","Resale",103.7886408,1.3091282,"15 ghim moh rd, block 15, singapore 270015"
"479",479,"  Blk 672A Klang Lane Singapore","5-Room","Improved"," Built-2002","105 sqm / $495 psf(Built)","$560,000","Resale",103.8524905,1.3085134,"672a klang ln, singapore 211672"
"480",480,"  Blk 642 Rowell Road Singapore","5-Room","Model A"," Built-1984","131 sqm / $609 psf(Built)","$860,000","Resale",103.856473,1.307542,"642 rowell rd, singapore 200642"
"481",481,"  Blk 46 Bendemeer Road Singapore","HDB Executive","Executive Apartment"," Built-1994","147 sqm / $537 psf(Built)","$850,000","Resale",103.8615294,1.3150672,"46 bendemeer rd, singapore 339931"
"482",482,"  Blk 676D Punggol Drive Singapore","4-Room","Standard"," Built-2012","93 sqm / $548 psf(Built)","$548,888","Resale",103.9093564,1.4051683,"676d punggol dr, singapore 824676"
"483",483,"  Blk 808C Chai Chee Road Singapore","4-Room","Model A"," Built-2015","88 sqm / $633 psf(Built)","$600,000","Resale",103.9233711,1.327395,"808c chai chee rd, singapore 463808"
"484",484,"  Blk 614A Edgefield Plains Singapore","4-Room","Model A"," Built-2012","92 sqm / $494 psf(Built)","$490,000","Resale",103.9092667,1.4037965,"614a edgefield plains, singapore 821614"
"485",485,"  Blk 128 Geylang East Avenue 1 Singapore","4-Room","Model A"," Built-1983","114 sqm / $472 psf(Built)","$580,000","Resale",103.8877115,1.3185818,"128 geylang east ave 1, block 128, singapore 380128"
"486",486,"  Blk 416 Bukit Batok West Avenue 4 Singapore","4-Room","Model A"," Built-1987","103 sqm / $342 psf(Built)","$380,000","Resale",103.745978,1.3631754,"416 bukit batok west ave 4, block 416, singapore 650416"
"487",487,"  Blk 614 Ang Mo Kio Avenue 4 Singapore","HDB Executive","Apartment"," Built-1996","147 sqm / $505 psf(Built)","$799,000","Resale",103.8393332,1.3780896,"614 ang mo kio ave 4, block 614, singapore 560614"
"488",488,"  Blk 38D Bendemeer Road Singapore","4-Room","Model A"," Built-2012","89 sqm / $730 psf(Built)","$700,000","Resale",103.8668213,1.3218715,"38d bendemeer rd, singapore 334038"
"489",489,"  Blk 708 Tampines Street 71 Singapore","5-Room","Improved"," Built-1997","119 sqm / $441 psf(Built)","$565,000","Resale",103.936767,1.358019,"708 tampines street 71, singapore 520708"
"490",490,"  Blk 877 Tampines Street 84 Singapore","3-Room","Model A"," Built-1988","74 sqm / $414 psf(Built)","$330,000","Resale",103.9314837,1.3525711,"877 tampines street 84, block 877, singapore 520877"
"491",491,"  Blk 557 Choa Chu Kang North 6 Singapore","HDB Executive","Apartment"," Built-1996","146 sqm / $356 psf(Built)","$560,000","Resale",103.7441677,1.3954427,"557 choa chu kang north 6, block 557, singapore 680557"
"492",492,"  Blk 637 Jurong West Street 61 Singapore","5-Room","Model A"," Built-2004","110 sqm / $362 psf(Built)","$429,178","Resale",103.6978317,1.3414719,"637 jurong west street 61, block 637, singapore 640637"
"493",493,"  Blk 661A Edgedale Plains Singapore","4-Room","Premium Apartment"," Built-2016","92 sqm / $525 psf(Built)","$520,000","Resale",103.9170938,1.4030376,"661a edgedale plains, singapore"
"494",494,"  Blk 308B Punggol Walk Singapore","4-Room","Model A"," Built-2015","92 sqm / $545 psf(Built)","$540,000","Resale",103.8998529,1.4076815,"308b punggol walk, singapore 822308"
"495",495,"  Blk 107 Ang Mo Kio Avenue 4 Singapore","4-Room","New Generation"," Built-1978","99 sqm / $431 psf(Built)","$460,000","Resale",103.8372499,1.371434,"107 ang mo kio ave 4, block 107, singapore 560107"
"496",496,"  Blk 168D Parc Lumiere Singapore","5-Room","Dbss"," Built-2011","107 sqm / $642 psf(Built)","$739,999","Resale",103.9584815,1.3430549,"167 simei ln, singapore 520167"
"497",497,"  Blk 415 Bedok North Avenue 2 Singapore","5-Room","Improved"," Built-1978","119 sqm / $459 psf(Built)","$588,000","Resale",103.9300788,1.3297817,"415 bedok north ave 2, block 415, singapore 460415"
"498",498,"  Blk 664A Punggol Drive Singapore","5-Room","Built-2016",NA,"110 sqm / $506 psf(Built)","$599,999","Resale",103.9174911,1.3995531,"664a punggol dr, singapore"
"499",499,"  Blk 311B Trivelis Singapore","4-Room","Dbss"," Built-2014","81 sqm / $860 psf(Built)","$750,000","Resale",103.7655694,1.3191667,"311a clementi ave 4, singapore 121311"
"500",500,"  Blk 4 Changi Village Road Singapore","3-Room","Improved"," Built-1980","66 sqm / $422 psf(Built)","$300,000","Resale",103.9874204,1.3891466,"4 changi village rd, singapore 500004"
"501",501,"  Blk 424 Serangoon Central Singapore","HDB Executive","Na"," Built-1989","146 sqm / $604 psf(Built)","$950,000","Resale",103.8755925,1.34812,"424 serangoon central, block 424, singapore 550424"
"502",502,"  Blk 295C Compassvale Crescent Singapore","5-Room","Improved"," Built-2002","110 sqm / $358 psf(Built)","$425,000","Resale",103.9000973,1.3972562,"295c compassvale cres, singapore 543295"
"503",503,"  Blk 103 Henderson Crescent Singapore","4-Room","Standard"," Built-1970","74 sqm / $501 psf(Built)","$400,000","Resale",103.8215129,1.2898163,"103 henderson cres, block 103, singapore 150103"
"504",504,"  Blk 443A Fajar Road Singapore","4-Room","Model A"," Built-2016","93 sqm / $484 psf(Built)","$485,000","Resale",103.7696542,1.381492,"443a fajar rd, singapore 674442"
"505",505,"  Blk 86 Dawson Road Singapore","4-Room","Improved"," Built-2016","83 sqm / $951 psf(Built)","$850,000","Resale",103.8103377,1.2956741,"86 dawson rd, singapore 141086"
"506",506,"  Blk 333C Anchorvale Link Singapore","5-Room","Improved"," Built-2015","112 sqm / $547 psf(Built)","$660,000","Resale",103.8907509,1.3945557,"333 anchorvale link, singapore"
"507",507,"  Blk 91 Dawson Road Singapore","4-Room","Model A"," Built-2016","83 sqm / $979 psf(Built)","$875,000","Resale",103.8124286,1.2953426,"91 dawson rd, singapore 144091"
"508",508,"  Blk 415B Fernvale Link Singapore","5-Room","Improved"," Built-2016","113 sqm / $434 psf(Built)","$528,000","Resale",103.8801605,1.389669,"415b fernvale link, singapore 791415"
"509",509,"  Blk 116 Edgefield Plains Singapore","5-Room","Model A"," Built-2003","113 sqm / $435 psf(Built)","$530,000","Resale",103.906758,1.395244,"116 edgefield plains, singapore 820116"
"510",510,"  Blk 520B Centrale 8 At Tampines Singapore","5-Room","Improved"," Built-2014","108 sqm / $700 psf(Built)","$815,000","Resale",103.9404167,1.3568659,"519 tampines central 8, singapore 520519"
